YEAR,BY YEAR NO,BY ROUND NO,TEAM NO,TEAM,SEED,ROUND,COLLEGE CITY,COLLEGE STATE,COLLEGE LOCATION,COLLEGE TIME ZONE,COLLEGE TIME ZONE VALUE,DAYLIGHT SAVINGS TIME,COLLEGE LATITUDE,COLLEGE LONGITUDE,GAME CITY,GAME STATE,GAME LOCATION,GAME TIME ZONE,GAME TIME ZONE VALUE,DAYLIGHT SAVINGS TIME,GAME LATITUDE,GAME LONGITUDE,TIME ZONE COMBINATION,DIRECTION,LONGITUDE DIFF,TIME ZONES CROSSED,TIME ZONES CROSSED VALUE,DISTANCE (KM),DISTANCE (MI)
2024,2036,0,1067,Connecticut,1,64,Storrs,Connecticut,Storrs Connecticut ,Eastern,6,TRUE,41.8084314,-72.2495231,Brooklyn,New York,Brooklyn New York,Eastern,6,TRUE,40.6781784,-73.9441579,Eastern Eastern,West,-1.6946348,0,0,189.3873311,117.6798317
2024,2035,0,1026,Stetson,16,64,DeLand,Florida,DeLand Florida,Eastern,6,TRUE,29.02832,-81.30312,Brooklyn,New York,Brooklyn New York,Eastern,6,TRUE,40.6781784,-73.9441579,Eastern Eastern,East,7.3589621,0,0,1457.722309,905.7866489
2024,2034,0,1038,North Carolina,1,64,Chapel Hill,North Carolina,Chapel Hill North Carolina ,Eastern,6,TRUE,35.9131996,-79.0558445,Charlotte,North Carolina,Charlotte North Carolina,Eastern,6,TRUE,35.2270869,-80.8431267,Eastern Eastern,West,-1.7872822,0,0,178.7477775,111.0687196
2024,2033,0,1055,Howard,16,64,Champaign,Illinois,Champaign Illinois ,Central,5,TRUE,40.1164204,-88.2433829,Charlotte,North Carolina,Charlotte North Carolina,Eastern,6,TRUE,35.2270869,-80.8431267,Central Eastern,East,7.4002562,1,1,847.8554525,526.8329534
2024,2032,0,1038,North Carolina,1,64,Chapel Hill,North Carolina,Chapel Hill North Carolina ,Eastern,6,TRUE,35.9131996,-79.0558445,Charlotte,North Carolina,Charlotte North Carolina,Eastern,6,TRUE,35.2270869,-80.8431267,Eastern Eastern,West,-1.7872822,0,0,178.7477775,111.0687196
2024,2031,0,1016,Wagner,16,64,Staten Island,New York,Staten Island New York,Eastern,6,TRUE,40.56233,-74.13986,Charlotte,North Carolina,Charlotte North Carolina,Eastern,6,TRUE,35.2270869,-80.8431267,Eastern Eastern,West,-6.7032667,0,0,834.9101266,518.7891008
2024,2030,0,1056,Houston,1,64,Houston,Texas,Houston Texas ,Central,5,TRUE,29.7604267,-95.3698028,Memphis,Tennessee,Memphis Tennessee,Central,5,TRUE,35.1495343,-90.0489801,Central Central,East,5.3208227,0,0,779.6622385,484.4596547
2024,2029,0,1048,Longwood,16,64,Farmville,Virginia,Farmville Virginia ,Eastern,6,TRUE,37.3020965,-78.3919401,Memphis,Tennessee,Memphis Tennessee,Central,5,TRUE,35.1495343,-90.0489801,Eastern Central,West,-11.65704,1,1,1071.912904,666.055799
2024,2028,0,1033,Purdue,1,64,West Lafayette,Indiana,West Lafayette Indiana ,Eastern,6,TRUE,40.4258686,-86.9080655,Indianapolis,Indiana,Indianapolis Indiana,Eastern,6,TRUE,39.768403,-86.158068,Eastern Eastern,East,0.7499975,0,0,97.02639593,60.28940732
2024,2027,0,1043,Montana St.,16,64,Bozeman,Montana,Bozeman Montana ,Mountain,4,TRUE,45.6814733,-111.0319925,Indianapolis,Indiana,Indianapolis Indiana,Eastern,6,TRUE,39.768403,-86.158068,Mountain Eastern,East,24.8739245,2,2,2125.4692,1320.705331
2024,2026,0,1033,Purdue,1,64,West Lafayette,Indiana,West Lafayette Indiana ,Eastern,6,TRUE,40.4258686,-86.9080655,Indianapolis,Indiana,Indianapolis Indiana,Eastern,6,TRUE,39.768403,-86.158068,Eastern Eastern,East,0.7499975,0,0,97.02639593,60.28940732
2024,2025,0,1058,Grambling St.,16,64,Grambling,Louisiana,Grambling Louisiana,Central,5,TRUE,32.52765,-92.71404,Indianapolis,Indiana,Indianapolis Indiana,Eastern,6,TRUE,39.768403,-86.158068,Central Eastern,East,6.555972,1,1,996.7081101,619.3257067
2024,2024,0,1053,Iowa St.,2,64,Ames,Iowa,Ames Iowa ,Central,5,TRUE,42.0307812,-93.6319131,Omaha,Nebraska,Omaha Nebraska,Central,5,TRUE,41.2565369,-95.9345034,Central Central,West,-2.3025903,0,0,209.8009809,130.3642856
2024,2023,0,1027,South Dakota St.,15,64,Brookings,South Dakota,Brookings South Dakota ,Central,5,TRUE,44.3113573,-96.7983877,Omaha,Nebraska,Omaha Nebraska,Central,5,TRUE,41.2565369,-95.9345034,Central Central,East,0.8638843,0,0,346.9133494,215.5619615
2024,2022,0,1077,Arizona,2,64,Tucson,Arizona,Tucson Arizona ,Mountain,3,FALSE,32.2539787,-110.9741769,Salt Lake City,Utah,Salt Lake City Utah,Mountain,4,TRUE,40.7607793,-111.8910474,Mountain Mountain,West,-0.9168705,0,0,949.4388114,589.9539262
2024,2021,0,1049,Long Beach St.,15,64,Long Beach,California,Long Beach California ,Pacific,3,TRUE,33.7700504,-118.1937395,Salt Lake City,Utah,Salt Lake City Utah,Mountain,4,TRUE,40.7607793,-111.8910474,Pacific Mountain,East,6.3026921,1,1,956.1149183,594.1022667
2024,2020,0,1047,Marquette,2,64,Milwaukee,Wisconsin,Milwaukee Wisconsin ,Central,5,TRUE,43.0389025,-87.9064736,Indianapolis,Indiana,Indianapolis Indiana,Eastern,6,TRUE,39.768403,-86.158068,Central Eastern,East,1.7484056,1,1,391.7848247,243.4438037
2024,2019,0,1014,Western Kentucky,15,64,Bowling Green,Kentucky,Bowling Green Kentucky ,Central,5,TRUE,36.9685219,-86.4808043,Indianapolis,Indiana,Indianapolis Indiana,Eastern,6,TRUE,39.768403,-86.158068,Central Eastern,East,0.3227363,1,1,312.6006608,194.2410453
2024,2018,0,1024,Tennessee,2,64,Knoxville,Tennessee,Knoxville Tennessee ,Eastern,6,TRUE,35.9606384,-83.9207392,Charlotte,North Carolina,Charlotte North Carolina,Eastern,6,TRUE,35.2270869,-80.8431267,Eastern Eastern,East,3.0776125,0,0,289.9690397,180.1784079
2024,2017,0,1031,Saint Peter's,15,64,Jersey City,New Jersey,Jersey City New Jersey ,Eastern,6,TRUE,40.7177545,-74.0431435,Charlotte,North Carolina,Charlotte North Carolina,Eastern,6,TRUE,35.2270869,-80.8431267,Eastern Eastern,West,-6.7999832,0,0,852.7072023,529.8476909
2024,2016,0,1054,Illinois,3,64,Champaign,Illinois,Champaign Illinois ,Central,5,TRUE,40.1164204,-88.2433829,Omaha,Nebraska,Omaha Nebraska,Central,5,TRUE,41.2565369,-95.9345034,Central Central,West,-7.6911205,0,0,660.5367795,410.4385262
2024,2015,0,1042,Morehead St.,14,64,Morehead,Kentucky,Morehead Kentucky ,Eastern,6,TRUE,38.1839705,-83.4326841,Omaha,Nebraska,Omaha Nebraska,Central,5,TRUE,41.2565369,-95.9345034,Eastern Central,West,-12.5018193,1,1,1121.312854,696.751505
2024,2014,0,1075,Baylor,3,64,Waco,Texas,Waco Texas ,Central,5,TRUE,31.549333,-97.1466695,Memphis,Tennessee,Memphis Tennessee,Central,5,TRUE,35.1495343,-90.0489801,Central Central,East,7.0976894,0,0,770.9709485,479.0591374
2024,2013,0,1071,Colgate,14,64,Hamilton,New York,Hamilton New York ,Eastern,6,TRUE,42.8270136,-75.5446238,Memphis,Tennessee,Memphis Tennessee,Central,5,TRUE,35.1495343,-90.0489801,Eastern Central,West,-14.5043563,1,1,1513.271023,940.3030197
2024,2012,0,1050,Kentucky,3,64,Lexington,Kentucky,Lexington Kentucky ,Eastern,6,TRUE,38.0405837,-84.5037164,Pittsburgh,Pennsylvania,Pittsburgh Pennsylvania,Eastern,6,TRUE,40.4406248,-79.9958864,Eastern Eastern,East,4.50783,0,0,470.9927906,292.6613518
2024,2011,0,1035,Oakland,14,64,Auburn Hills,Michigan,Auburn Hills Michigan ,Eastern,6,TRUE,42.6875323,-83.2341028,Pittsburgh,Pennsylvania,Pittsburgh Pennsylvania,Eastern,6,TRUE,40.4406248,-79.9958864,Eastern Eastern,East,3.2382164,0,0,367.3763781,228.277098
2024,2010,0,1066,Creighton,3,64,Omaha,Nebraska,Omaha Nebraska ,Central,5,TRUE,41.2565369,-95.9345034,Pittsburgh,Pennsylvania,Pittsburgh Pennsylvania,Eastern,6,TRUE,40.4406248,-79.9958864,Central Eastern,East,15.938617,1,1,1341.812105,833.7633875
2024,2009,0,1079,Akron,14,64,Akron,Ohio,Akron Ohio ,Eastern,6,TRUE,41.0814447,-81.5190053,Pittsburgh,Pennsylvania,Pittsburgh Pennsylvania,Eastern,6,TRUE,40.4406248,-79.9958864,Eastern Eastern,East,1.5231189,0,0,146.7405072,91.18032393
2024,2008,0,1076,Auburn,4,64,Auburn,Alabama,Auburn Alabama ,Central,5,TRUE,32.6098566,-85.4807825,Spokane,Washington,Spokane Washington,Pacific,3,TRUE,47.6587802,-117.4260466,Central Pacific,West,-31.9452641,2,1,3156.187989,1961.164293
2024,2007,0,1012,Yale,13,64,New Haven,Connecticut,New Haven Connecticut ,Eastern,6,TRUE,41.308274,-72.9278835,Spokane,Washington,Spokane Washington,Pacific,3,TRUE,47.6587802,-117.4260466,Eastern Pacific,West,-44.4981631,3,-3,3549.241292,2205.396293
2024,2006,0,1078,Alabama,4,64,Tuscaloosa,Alabama,Tuscaloosa Alabama ,Central,5,TRUE,33.2098407,-87.5691735,Spokane,Washington,Spokane Washington,Pacific,3,TRUE,47.6587802,-117.4260466,Central Pacific,West,-29.8568731,2,1,2966.03877,1843.011047
2024,2005,0,1070,College of Charleston,13,64,Charleston,South Carolina,Charleston South Carolina ,Eastern,6,TRUE,32.7764749,-79.9310512,Spokane,Washington,Spokane Washington,Pacific,3,TRUE,47.6587802,-117.4260466,Eastern Pacific,West,-37.4949954,3,-3,3541.229603,2200.418061
2024,2004,0,1063,Duke,4,64,Durham,North Carolina,Durham North Carolina ,Eastern,6,TRUE,35.9940329,-78.898619,Brooklyn,New York,Brooklyn New York,Eastern,6,TRUE,40.6781784,-73.9441579,Eastern Eastern,East,4.9544611,0,0,676.5186396,420.3691936
2024,2003,0,1018,Vermont,13,64,Burlington,Vermont,Burlington Vermont ,Eastern,6,TRUE,44.4758825,-73.212072,Brooklyn,New York,Brooklyn New York,Eastern,6,TRUE,40.6781784,-73.9441579,Eastern Eastern,West,-0.7320859,0,0,426.5132313,265.023035
2024,2002,0,1051,Kansas,4,64,Lawrence,Kansas,Lawrence Kansas ,Central,5,TRUE,38.9716689,-95.2352501,Salt Lake City,Utah,Salt Lake City Utah,Mountain,4,TRUE,40.7607793,-111.8910474,Central Mountain,West,-16.6557973,1,1,1433.150811,890.5186283
2024,2001,0,1030,Samford,13,64,Homewood,Alabama,Homewood Alabama,Central,5,TRUE,33.47177,-86.80082,Salt Lake City,Utah,Salt Lake City Utah,Mountain,4,TRUE,40.7607793,-111.8910474,Central Mountain,West,-25.0902274,1,1,2357.744703,1465.034637
2024,2000,0,1029,San Diego St.,5,64,San Diego,California,San Diego California ,Pacific,3,TRUE,32.715738,-117.1610838,Spokane,Washington,Spokane Washington,Pacific,3,TRUE,47.6587802,-117.4260466,Pacific Pacific,West,-0.2649628,0,0,1661.740191,1032.557484
2024,1999,0,1020,UAB,12,64,Birmingham,Alabama,Birmingham Alabama ,Central,5,TRUE,33.5185892,-86.8103567,Spokane,Washington,Spokane Washington,Pacific,3,TRUE,47.6587802,-117.4260466,Central Pacific,West,-30.6156899,2,1,2996.400852,1861.87717
2024,1998,0,1032,Saint Mary's,5,64,Moraga,California,Moraga California ,Pacific,3,TRUE,37.8349263,-122.1296871,Spokane,Washington,Spokane Washington,Pacific,3,TRUE,47.6587802,-117.4260466,Pacific Pacific,East,4.7036405,0,0,1157.345998,719.1414626
2024,1997,0,1057,Grand Canyon,12,64,Phoenix,Arizona,Phoenix Arizona ,Mountain,3,FALSE,33.4483771,-112.0740373,Spokane,Washington,Spokane Washington,Pacific,3,TRUE,47.6587802,-117.4260466,Mountain Pacific,West,-5.3520093,0,0,1642.505481,1020.605589
2024,1996,0,1013,Wisconsin,5,64,Madison,Wisconsin,Madison Wisconsin ,Central,5,TRUE,43.0721661,-89.4007501,Brooklyn,New York,Brooklyn New York,Eastern,6,TRUE,40.6781784,-73.9441579,Central Eastern,East,15.4565922,1,1,1305.124185,810.9665709
2024,1995,0,1052,James Madison,12,64,Harrisonburg,Virginia,Harrisonburg Virginia ,Eastern,6,TRUE,38.4495688,-78.8689155,Brooklyn,New York,Brooklyn New York,Eastern,6,TRUE,40.6781784,-73.9441579,Eastern Eastern,East,4.9247576,0,0,489.4029664,304.1009047
2024,1994,0,1059,Gonzaga,5,64,Spokane,Washington,Spokane Washington ,Pacific,3,TRUE,47.6587802,-117.4260466,Salt Lake City,Utah,Salt Lake City Utah,Mountain,4,TRUE,40.7607793,-111.8910474,Pacific Mountain,East,5.5349992,1,1,884.2898193,549.4722193
2024,1993,0,1046,McNeese St.,12,64,Lake Charles,Louisiana,Lake Charles Louisiana,Central,5,TRUE,30.21309,-93.2044,Salt Lake City,Utah,Salt Lake City Utah,Mountain,4,TRUE,40.7607793,-111.8910474,Central Mountain,West,-18.6866474,1,1,2051.586464,1274.796727
2024,1992,0,1073,BYU,6,64,Provo,Utah,Provo Utah ,Mountain,4,TRUE,40.2338438,-111.6585337,Omaha,Nebraska,Omaha Nebraska,Central,5,TRUE,41.2565369,-95.9345034,Mountain Central,East,15.7240303,1,1,1327.691298,824.989125
2024,1991,0,1062,Duquesne,11,64,Pittsburgh,Pennsylvania,Pittsburgh Pennsylvania,Eastern,6,TRUE,40.44062,-79.99589,Omaha,Nebraska,Omaha Nebraska,Central,5,TRUE,41.2565369,-95.9345034,Eastern Central,West,-15.9386134,1,1,1341.811888,833.7632529
2024,1990,0,1072,Clemson,6,64,Clemson,South Carolina,Clemson South Carolina ,Eastern,6,TRUE,34.6834382,-82.8373654,Memphis,Tennessee,Memphis Tennessee,Central,5,TRUE,35.1495343,-90.0489801,Eastern Central,West,-7.2116147,1,1,659.4366219,409.75492
2024,1989,0,1039,New Mexico,11,64,Albuquerque,New Mexico,Albuquerque New Mexico ,Mountain,4,TRUE,35.0843859,-106.650422,Memphis,Tennessee,Memphis Tennessee,Central,5,TRUE,35.1495343,-90.0489801,Mountain Central,East,16.6014419,1,1,1508.246972,937.1812193
2024,1988,0,1021,Texas Tech,6,64,Lubbock,Texas,Lubbock Texas ,Central,5,TRUE,33.5845617,-101.8456417,Pittsburgh,Pennsylvania,Pittsburgh Pennsylvania,Eastern,6,TRUE,40.4406248,-79.9958864,Central Eastern,East,21.8497553,1,1,2077.517525,1290.909541
2024,1987,0,1037,North Carolina St.,11,64,Raleigh,North Carolina,Raleigh North Carolina ,Eastern,6,TRUE,35.7795897,-78.6381787,Pittsburgh,Pennsylvania,Pittsburgh Pennsylvania,Eastern,6,TRUE,40.4406248,-79.9958864,Eastern Eastern,West,-1.3577077,0,0,531.7008182,330.3835713
2024,1986,0,1028,South Carolina,6,64,Columbia,South Carolina,Columbia South Carolina ,Eastern,6,TRUE,34.0007104,-81.0348144,Pittsburgh,Pennsylvania,Pittsburgh Pennsylvania,Eastern,6,TRUE,40.4406248,-79.9958864,Eastern Eastern,East,1.038928,0,0,721.9536803,448.601219
2024,1985,0,1034,Oregon,11,64,Eugene,Oregon,Eugene Oregon ,Pacific,3,TRUE,44.0520691,-123.0867536,Pittsburgh,Pennsylvania,Pittsburgh Pennsylvania,Eastern,6,TRUE,40.4406248,-79.9958864,Pacific Eastern,East,43.0908672,3,3,3528.960946,2192.79467
2024,1984,0,1015,Washington St.,7,64,Pullman,Washington,Pullman Washington ,Pacific,3,TRUE,46.7297771,-117.1817377,Omaha,Nebraska,Omaha Nebraska,Central,5,TRUE,41.2565369,-95.9345034,Pacific Central,East,21.2472343,2,2,1798.602908,1117.600033
2024,1983,0,1064,Drake,10,64,Des Moines,Iowa,Des Moines Iowa ,Central,5,TRUE,41.5868353,-93.6249593,Omaha,Nebraska,Omaha Nebraska,Central,5,TRUE,41.2565369,-95.9345034,Central Central,West,-2.3095441,0,0,196.0360196,121.8111352
2024,1982,0,1065,Dayton,7,64,Dayton,Ohio,Dayton Ohio ,Eastern,6,TRUE,39.7589478,-84.1916069,Salt Lake City,Utah,Salt Lake City Utah,Mountain,4,TRUE,40.7607793,-111.8910474,Eastern Mountain,West,-27.6994405,2,-2,2343.317314,1456.069873
2024,1981,0,1040,Nevada,10,64,Reno,Nevada,Reno Nevada ,Pacific,3,TRUE,39.529919,-119.8142691,Salt Lake City,Utah,Salt Lake City Utah,Mountain,4,TRUE,40.7607793,-111.8910474,Pacific Mountain,East,7.9232217,1,1,686.971271,426.8641577
2024,1980,0,1061,Florida,7,64,Gainesville,Florida,Gainesville Florida ,Eastern,6,TRUE,29.6516344,-82.3248262,Indianapolis,Indiana,Indianapolis Indiana,Eastern,6,TRUE,39.768403,-86.158068,Eastern Eastern,West,-3.8332418,0,0,1177.901045,731.9137766
2024,1979,0,1074,Boise St.,10,64,Boise,Idaho,Boise Idaho ,Mountain,4,TRUE,43.6150186,-116.2023137,Indianapolis,Indiana,Indianapolis Indiana,Eastern,6,TRUE,39.768403,-86.158068,Mountain Eastern,East,30.0442457,2,2,2516.865045,1563.907434
2024,1978,0,1061,Florida,7,64,Gainesville,Florida,Gainesville Florida ,Eastern,6,TRUE,29.6516344,-82.3248262,Indianapolis,Indiana,Indianapolis Indiana,Eastern,6,TRUE,39.768403,-86.158068,Eastern Eastern,West,-3.8332418,0,0,1177.901045,731.9137766
2024,1977,0,1069,Colorado,10,64,Boulder,Colorado,Boulder Colorado ,Mountain,4,TRUE,40.0149856,-105.2705456,Indianapolis,Indiana,Indianapolis Indiana,Eastern,6,TRUE,39.768403,-86.158068,Mountain Eastern,East,19.1124776,2,2,1627.683918,1011.395896
2024,1976,0,1023,Texas,7,64,Austin,Texas,Austin Texas ,Central,5,TRUE,30.267153,-97.7430608,Charlotte,North Carolina,Charlotte North Carolina,Eastern,6,TRUE,35.2270869,-80.8431267,Central Eastern,East,16.8999341,1,1,1671.343822,1038.524903
2024,1975,0,1017,Virginia,10,64,Charlottesville,Virginia,Charlottesville Virginia ,Eastern,6,TRUE,38.0293059,-78.4766781,Charlotte,North Carolina,Charlotte North Carolina,Eastern,6,TRUE,35.2270869,-80.8431267,Eastern Eastern,West,-2.3664486,0,0,376.3753433,233.8687958
2024,1974,0,1023,Texas,7,64,Austin,Texas,Austin Texas ,Central,5,TRUE,30.267153,-97.7430608,Charlotte,North Carolina,Charlotte North Carolina,Eastern,6,TRUE,35.2270869,-80.8431267,Central Eastern,East,16.8999341,1,1,1671.343822,1038.524903
2024,1973,0,1068,Colorado St.,10,64,Fort Collins,Colorado,Fort Collins Colorado ,Mountain,4,TRUE,40.5852602,-105.084423,Charlotte,North Carolina,Charlotte North Carolina,Eastern,6,TRUE,35.2270869,-80.8431267,Mountain Eastern,East,24.2412963,2,2,2200.744544,1367.479261
2024,1972,0,1060,Florida Atlantic,8,64,Boca Raton,Florida,Boca Raton Florida,Eastern,6,TRUE,26.376032,-80.12236,Brooklyn,New York,Brooklyn New York,Eastern,6,TRUE,40.6781784,-73.9441579,Eastern Eastern,East,6.1782021,0,0,1689.097734,1049.556673
2024,1971,0,1036,Northwestern,9,64,Evanston,Illinois,Evanston Illinois ,Central,5,TRUE,42.0450722,-87.6876969,Brooklyn,New York,Brooklyn New York,Eastern,6,TRUE,40.6781784,-73.9441579,Central Eastern,East,13.743539,1,1,1155.74813,718.1485933
2024,1970,0,1044,Mississippi St.,8,64,Starkville,Mississippi,Starkville Mississippi ,Central,5,TRUE,33.4503998,-88.8183872,Charlotte,North Carolina,Charlotte North Carolina,Eastern,6,TRUE,35.2270869,-80.8431267,Central Eastern,East,7.9752605,1,1,758.1851933,471.1144375
2024,1969,0,1045,Michigan St.,9,64,East Lansing,Michigan,East Lansing Michigan ,Eastern,6,TRUE,42.7369792,-84.4838654,Charlotte,North Carolina,Charlotte North Carolina,Eastern,6,TRUE,35.2270869,-80.8431267,Eastern Eastern,East,3.6407387,0,0,892.1469806,554.354433
2024,1968,0,1041,Nebraska,8,64,Lincoln,Nebraska,Lincoln Nebraska ,Central,5,TRUE,40.813616,-96.7025955,Memphis,Tennessee,Memphis Tennessee,Central,5,TRUE,35.1495343,-90.0489801,Central Central,East,6.6536154,0,0,857.7939316,533.0084379
2024,1967,0,1022,Texas A&M,9,64,College Station,Texas,College Station Texas ,Central,5,TRUE,30.627977,-96.3344068,Memphis,Tennessee,Memphis Tennessee,Central,5,TRUE,35.1495343,-90.0489801,Central Central,East,6.2854267,0,0,772.4752648,479.9938762
2024,1966,0,1019,Utah St.,8,64,Logan,Utah,Logan Utah ,Mountain,4,TRUE,41.7369803,-111.8338359,Indianapolis,Indiana,Indianapolis Indiana,Eastern,6,TRUE,39.768403,-86.158068,Mountain Eastern,East,25.6757679,2,2,2165.724919,1345.719075
2024,1965,0,1025,TCU,9,64,Fort Worth,Texas,Fort Worth Texas ,Central,5,TRUE,32.7554883,-97.3307658,Indianapolis,Indiana,Indianapolis Indiana,Eastern,6,TRUE,39.768403,-86.158068,Central Eastern,East,11.1726978,1,1,1267.738304,787.7360614
2024,1964,0,1067,Connecticut,1,32,Storrs,Connecticut,Storrs Connecticut ,Eastern,6,TRUE,41.8084314,-72.2495231,Brooklyn,New York,Brooklyn New York,Eastern,6,TRUE,40.6781784,-73.9441579,Eastern Eastern,West,-1.6946348,0,0,189.3873311,117.6798317
2024,1963,0,1060,Florida Atlantic,8,32,Boca Raton,Florida,Boca Raton Florida,Eastern,6,TRUE,26.376032,-80.12236,Brooklyn,New York,Brooklyn New York,Eastern,6,TRUE,40.6781784,-73.9441579,Eastern Eastern,East,6.1782021,0,0,1689.097734,1049.556673
2024,1962,0,1067,Connecticut,1,32,Storrs,Connecticut,Storrs Connecticut ,Eastern,6,TRUE,41.8084314,-72.2495231,Brooklyn,New York,Brooklyn New York,Eastern,6,TRUE,40.6781784,-73.9441579,Eastern Eastern,West,-1.6946348,0,0,189.3873311,117.6798317
2024,1961,0,1036,Northwestern,9,32,Evanston,Illinois,Evanston Illinois ,Central,5,TRUE,42.0450722,-87.6876969,Brooklyn,New York,Brooklyn New York,Eastern,6,TRUE,40.6781784,-73.9441579,Central Eastern,East,13.743539,1,1,1155.74813,718.1485933
2024,1960,0,1038,North Carolina,1,32,Chapel Hill,North Carolina,Chapel Hill North Carolina ,Eastern,6,TRUE,35.9131996,-79.0558445,Charlotte,North Carolina,Charlotte North Carolina,Eastern,6,TRUE,35.2270869,-80.8431267,Eastern Eastern,West,-1.7872822,0,0,178.7477775,111.0687196
2024,1959,0,1044,Mississippi St.,8,32,Starkville,Mississippi,Starkville Mississippi ,Central,5,TRUE,33.4503998,-88.8183872,Charlotte,North Carolina,Charlotte North Carolina,Eastern,6,TRUE,35.2270869,-80.8431267,Central Eastern,East,7.9752605,1,1,758.1851933,471.1144375
2024,1958,0,1038,North Carolina,1,32,Chapel Hill,North Carolina,Chapel Hill North Carolina ,Eastern,6,TRUE,35.9131996,-79.0558445,Charlotte,North Carolina,Charlotte North Carolina,Eastern,6,TRUE,35.2270869,-80.8431267,Eastern Eastern,West,-1.7872822,0,0,178.7477775,111.0687196
2024,1957,0,1045,Michigan St.,9,32,East Lansing,Michigan,East Lansing Michigan ,Eastern,6,TRUE,42.7369792,-84.4838654,Charlotte,North Carolina,Charlotte North Carolina,Eastern,6,TRUE,35.2270869,-80.8431267,Eastern Eastern,East,3.6407387,0,0,892.1469806,554.354433
2024,1956,0,1056,Houston,1,32,Houston,Texas,Houston Texas ,Central,5,TRUE,29.7604267,-95.3698028,Memphis,Tennessee,Memphis Tennessee,Central,5,TRUE,35.1495343,-90.0489801,Central Central,East,5.3208227,0,0,779.6622385,484.4596547
2024,1955,0,1041,Nebraska,8,32,Lincoln,Nebraska,Lincoln Nebraska ,Central,5,TRUE,40.813616,-96.7025955,Memphis,Tennessee,Memphis Tennessee,Central,5,TRUE,35.1495343,-90.0489801,Central Central,East,6.6536154,0,0,857.7939316,533.0084379
2024,1954,0,1056,Houston,1,32,Houston,Texas,Houston Texas ,Central,5,TRUE,29.7604267,-95.3698028,Memphis,Tennessee,Memphis Tennessee,Central,5,TRUE,35.1495343,-90.0489801,Central Central,East,5.3208227,0,0,779.6622385,484.4596547
2024,1953,0,1022,Texas A&M,9,32,College Station,Texas,College Station Texas ,Central,5,TRUE,30.627977,-96.3344068,Memphis,Tennessee,Memphis Tennessee,Central,5,TRUE,35.1495343,-90.0489801,Central Central,East,6.2854267,0,0,772.4752648,479.9938762
2024,1952,0,1033,Purdue,1,32,West Lafayette,Indiana,West Lafayette Indiana ,Eastern,6,TRUE,40.4258686,-86.9080655,Indianapolis,Indiana,Indianapolis Indiana,Eastern,6,TRUE,39.768403,-86.158068,Eastern Eastern,East,0.7499975,0,0,97.02639593,60.28940732
2024,1951,0,1019,Utah St.,8,32,Logan,Utah,Logan Utah ,Mountain,4,TRUE,41.7369803,-111.8338359,Indianapolis,Indiana,Indianapolis Indiana,Eastern,6,TRUE,39.768403,-86.158068,Mountain Eastern,East,25.6757679,2,2,2165.724919,1345.719075
2024,1950,0,1033,Purdue,1,32,West Lafayette,Indiana,West Lafayette Indiana ,Eastern,6,TRUE,40.4258686,-86.9080655,Indianapolis,Indiana,Indianapolis Indiana,Eastern,6,TRUE,39.768403,-86.158068,Eastern Eastern,East,0.7499975,0,0,97.02639593,60.28940732
2024,1949,0,1025,TCU,9,32,Fort Worth,Texas,Fort Worth Texas ,Central,5,TRUE,32.7554883,-97.3307658,Indianapolis,Indiana,Indianapolis Indiana,Eastern,6,TRUE,39.768403,-86.158068,Central Eastern,East,11.1726978,1,1,1267.738304,787.7360614
2024,1948,0,1053,Iowa St.,2,32,Ames,Iowa,Ames Iowa ,Central,5,TRUE,42.0307812,-93.6319131,Omaha,Nebraska,Omaha Nebraska,Central,5,TRUE,41.2565369,-95.9345034,Central Central,West,-2.3025903,0,0,209.8009809,130.3642856
2024,1947,0,1015,Washington St.,7,32,Pullman,Washington,Pullman Washington ,Pacific,3,TRUE,46.7297771,-117.1817377,Omaha,Nebraska,Omaha Nebraska,Central,5,TRUE,41.2565369,-95.9345034,Pacific Central,East,21.2472343,2,2,1798.602908,1117.600033
2024,1946,0,1053,Iowa St.,2,32,Ames,Iowa,Ames Iowa ,Central,5,TRUE,42.0307812,-93.6319131,Omaha,Nebraska,Omaha Nebraska,Central,5,TRUE,41.2565369,-95.9345034,Central Central,West,-2.3025903,0,0,209.8009809,130.3642856
2024,1945,0,1064,Drake,10,32,Des Moines,Iowa,Des Moines Iowa ,Central,5,TRUE,41.5868353,-93.6249593,Omaha,Nebraska,Omaha Nebraska,Central,5,TRUE,41.2565369,-95.9345034,Central Central,West,-2.3095441,0,0,196.0360196,121.8111352
2024,1944,0,1077,Arizona,2,32,Tucson,Arizona,Tucson Arizona ,Mountain,3,FALSE,32.2539787,-110.9741769,Salt Lake City,Utah,Salt Lake City Utah,Mountain,4,TRUE,40.7607793,-111.8910474,Mountain Mountain,West,-0.9168705,0,0,949.4388114,589.9539262
2024,1943,0,1065,Dayton,7,32,Dayton,Ohio,Dayton Ohio ,Eastern,6,TRUE,39.7589478,-84.1916069,Salt Lake City,Utah,Salt Lake City Utah,Mountain,4,TRUE,40.7607793,-111.8910474,Eastern Mountain,West,-27.6994405,2,-2,2343.317314,1456.069873
2024,1942,0,1077,Arizona,2,32,Tucson,Arizona,Tucson Arizona ,Mountain,3,FALSE,32.2539787,-110.9741769,Salt Lake City,Utah,Salt Lake City Utah,Mountain,4,TRUE,40.7607793,-111.8910474,Mountain Mountain,West,-0.9168705,0,0,949.4388114,589.9539262
2024,1941,0,1040,Nevada,10,32,Reno,Nevada,Reno Nevada ,Pacific,3,TRUE,39.529919,-119.8142691,Salt Lake City,Utah,Salt Lake City Utah,Mountain,4,TRUE,40.7607793,-111.8910474,Pacific Mountain,East,7.9232217,1,1,686.971271,426.8641577
2024,1940,0,1047,Marquette,2,32,Milwaukee,Wisconsin,Milwaukee Wisconsin ,Central,5,TRUE,43.0389025,-87.9064736,Indianapolis,Indiana,Indianapolis Indiana,Eastern,6,TRUE,39.768403,-86.158068,Central Eastern,East,1.7484056,1,1,391.7848247,243.4438037
2024,1939,0,1061,Florida,7,32,Gainesville,Florida,Gainesville Florida ,Eastern,6,TRUE,29.6516344,-82.3248262,Indianapolis,Indiana,Indianapolis Indiana,Eastern,6,TRUE,39.768403,-86.158068,Eastern Eastern,West,-3.8332418,0,0,1177.901045,731.9137766
2024,1938,0,1047,Marquette,2,32,Milwaukee,Wisconsin,Milwaukee Wisconsin ,Central,5,TRUE,43.0389025,-87.9064736,Indianapolis,Indiana,Indianapolis Indiana,Eastern,6,TRUE,39.768403,-86.158068,Central Eastern,East,1.7484056,1,1,391.7848247,243.4438037
2024,1937,0,1074,Boise St.,10,32,Boise,Idaho,Boise Idaho ,Mountain,4,TRUE,43.6150186,-116.2023137,Indianapolis,Indiana,Indianapolis Indiana,Eastern,6,TRUE,39.768403,-86.158068,Mountain Eastern,East,30.0442457,2,2,2516.865045,1563.907434
2024,1936,0,1047,Marquette,2,32,Milwaukee,Wisconsin,Milwaukee Wisconsin ,Central,5,TRUE,43.0389025,-87.9064736,Indianapolis,Indiana,Indianapolis Indiana,Eastern,6,TRUE,39.768403,-86.158068,Central Eastern,East,1.7484056,1,1,391.7848247,243.4438037
2024,1935,0,1069,Colorado,10,32,Boulder,Colorado,Boulder Colorado ,Mountain,4,TRUE,40.0149856,-105.2705456,Indianapolis,Indiana,Indianapolis Indiana,Eastern,6,TRUE,39.768403,-86.158068,Mountain Eastern,East,19.1124776,2,2,1627.683918,1011.395896
2024,1934,0,1024,Tennessee,2,32,Knoxville,Tennessee,Knoxville Tennessee ,Eastern,6,TRUE,35.9606384,-83.9207392,Charlotte,North Carolina,Charlotte North Carolina,Eastern,6,TRUE,35.2270869,-80.8431267,Eastern Eastern,East,3.0776125,0,0,289.9690397,180.1784079
2024,1933,0,1023,Texas,7,32,Austin,Texas,Austin Texas ,Central,5,TRUE,30.267153,-97.7430608,Charlotte,North Carolina,Charlotte North Carolina,Eastern,6,TRUE,35.2270869,-80.8431267,Central Eastern,East,16.8999341,1,1,1671.343822,1038.524903
2024,1932,0,1024,Tennessee,2,32,Knoxville,Tennessee,Knoxville Tennessee ,Eastern,6,TRUE,35.9606384,-83.9207392,Charlotte,North Carolina,Charlotte North Carolina,Eastern,6,TRUE,35.2270869,-80.8431267,Eastern Eastern,East,3.0776125,0,0,289.9690397,180.1784079
2024,1931,0,1017,Virginia,10,32,Charlottesville,Virginia,Charlottesville Virginia ,Eastern,6,TRUE,38.0293059,-78.4766781,Charlotte,North Carolina,Charlotte North Carolina,Eastern,6,TRUE,35.2270869,-80.8431267,Eastern Eastern,West,-2.3664486,0,0,376.3753433,233.8687958
2024,1930,0,1024,Tennessee,2,32,Knoxville,Tennessee,Knoxville Tennessee ,Eastern,6,TRUE,35.9606384,-83.9207392,Charlotte,North Carolina,Charlotte North Carolina,Eastern,6,TRUE,35.2270869,-80.8431267,Eastern Eastern,East,3.0776125,0,0,289.9690397,180.1784079
2024,1929,0,1068,Colorado St.,10,32,Fort Collins,Colorado,Fort Collins Colorado ,Mountain,4,TRUE,40.5852602,-105.084423,Charlotte,North Carolina,Charlotte North Carolina,Eastern,6,TRUE,35.2270869,-80.8431267,Mountain Eastern,East,24.2412963,2,2,2200.744544,1367.479261
2024,1928,0,1054,Illinois,3,32,Champaign,Illinois,Champaign Illinois ,Central,5,TRUE,40.1164204,-88.2433829,Omaha,Nebraska,Omaha Nebraska,Central,5,TRUE,41.2565369,-95.9345034,Central Central,West,-7.6911205,0,0,660.5367795,410.4385262
2024,1927,0,1073,BYU,6,32,Provo,Utah,Provo Utah ,Mountain,4,TRUE,40.2338438,-111.6585337,Omaha,Nebraska,Omaha Nebraska,Central,5,TRUE,41.2565369,-95.9345034,Mountain Central,East,15.7240303,1,1,1327.691298,824.989125
2024,1926,0,1054,Illinois,3,32,Champaign,Illinois,Champaign Illinois ,Central,5,TRUE,40.1164204,-88.2433829,Omaha,Nebraska,Omaha Nebraska,Central,5,TRUE,41.2565369,-95.9345034,Central Central,West,-7.6911205,0,0,660.5367795,410.4385262
2024,1925,0,1062,Duquesne,11,32,Pittsburgh,Pennsylvania,Pittsburgh Pennsylvania,Eastern,6,TRUE,40.44062,-79.99589,Omaha,Nebraska,Omaha Nebraska,Central,5,TRUE,41.2565369,-95.9345034,Eastern Central,West,-15.9386134,1,1,1341.811888,833.7632529
2024,1924,0,1075,Baylor,3,32,Waco,Texas,Waco Texas ,Central,5,TRUE,31.549333,-97.1466695,Memphis,Tennessee,Memphis Tennessee,Central,5,TRUE,35.1495343,-90.0489801,Central Central,East,7.0976894,0,0,770.9709485,479.0591374
2024,1923,0,1072,Clemson,6,32,Clemson,South Carolina,Clemson South Carolina ,Eastern,6,TRUE,34.6834382,-82.8373654,Memphis,Tennessee,Memphis Tennessee,Central,5,TRUE,35.1495343,-90.0489801,Eastern Central,West,-7.2116147,1,1,659.4366219,409.75492
2024,1922,0,1075,Baylor,3,32,Waco,Texas,Waco Texas ,Central,5,TRUE,31.549333,-97.1466695,Memphis,Tennessee,Memphis Tennessee,Central,5,TRUE,35.1495343,-90.0489801,Central Central,East,7.0976894,0,0,770.9709485,479.0591374
2024,1921,0,1039,New Mexico,11,32,Albuquerque,New Mexico,Albuquerque New Mexico ,Mountain,4,TRUE,35.0843859,-106.650422,Memphis,Tennessee,Memphis Tennessee,Central,5,TRUE,35.1495343,-90.0489801,Mountain Central,East,16.6014419,1,1,1508.246972,937.1812193
2024,1920,0,1050,Kentucky,3,32,Lexington,Kentucky,Lexington Kentucky ,Eastern,6,TRUE,38.0405837,-84.5037164,Pittsburgh,Pennsylvania,Pittsburgh Pennsylvania,Eastern,6,TRUE,40.4406248,-79.9958864,Eastern Eastern,East,4.50783,0,0,470.9927906,292.6613518
2024,1919,0,1021,Texas Tech,6,32,Lubbock,Texas,Lubbock Texas ,Central,5,TRUE,33.5845617,-101.8456417,Pittsburgh,Pennsylvania,Pittsburgh Pennsylvania,Eastern,6,TRUE,40.4406248,-79.9958864,Central Eastern,East,21.8497553,1,1,2077.517525,1290.909541
2024,1918,0,1050,Kentucky,3,32,Lexington,Kentucky,Lexington Kentucky ,Eastern,6,TRUE,38.0405837,-84.5037164,Pittsburgh,Pennsylvania,Pittsburgh Pennsylvania,Eastern,6,TRUE,40.4406248,-79.9958864,Eastern Eastern,East,4.50783,0,0,470.9927906,292.6613518
2024,1917,0,1037,North Carolina St.,11,32,Raleigh,North Carolina,Raleigh North Carolina ,Eastern,6,TRUE,35.7795897,-78.6381787,Pittsburgh,Pennsylvania,Pittsburgh Pennsylvania,Eastern,6,TRUE,40.4406248,-79.9958864,Eastern Eastern,West,-1.3577077,0,0,531.7008182,330.3835713
2024,1916,0,1066,Creighton,3,32,Omaha,Nebraska,Omaha Nebraska ,Central,5,TRUE,41.2565369,-95.9345034,Pittsburgh,Pennsylvania,Pittsburgh Pennsylvania,Eastern,6,TRUE,40.4406248,-79.9958864,Central Eastern,East,15.938617,1,1,1341.812105,833.7633875
2024,1915,0,1028,South Carolina,6,32,Columbia,South Carolina,Columbia South Carolina ,Eastern,6,TRUE,34.0007104,-81.0348144,Pittsburgh,Pennsylvania,Pittsburgh Pennsylvania,Eastern,6,TRUE,40.4406248,-79.9958864,Eastern Eastern,East,1.038928,0,0,721.9536803,448.601219
2024,1914,0,1066,Creighton,3,32,Omaha,Nebraska,Omaha Nebraska ,Central,5,TRUE,41.2565369,-95.9345034,Pittsburgh,Pennsylvania,Pittsburgh Pennsylvania,Eastern,6,TRUE,40.4406248,-79.9958864,Central Eastern,East,15.938617,1,1,1341.812105,833.7633875
2024,1913,0,1034,Oregon,11,32,Eugene,Oregon,Eugene Oregon ,Pacific,3,TRUE,44.0520691,-123.0867536,Pittsburgh,Pennsylvania,Pittsburgh Pennsylvania,Eastern,6,TRUE,40.4406248,-79.9958864,Pacific Eastern,East,43.0908672,3,3,3528.960946,2192.79467
2024,1912,0,1076,Auburn,4,32,Auburn,Alabama,Auburn Alabama ,Central,5,TRUE,32.6098566,-85.4807825,Spokane,Washington,Spokane Washington,Pacific,3,TRUE,47.6587802,-117.4260466,Central Pacific,West,-31.9452641,2,1,3156.187989,1961.164293
2024,1911,0,1029,San Diego St.,5,32,San Diego,California,San Diego California ,Pacific,3,TRUE,32.715738,-117.1610838,Spokane,Washington,Spokane Washington,Pacific,3,TRUE,47.6587802,-117.4260466,Pacific Pacific,West,-0.2649628,0,0,1661.740191,1032.557484
2024,1910,0,1078,Alabama,4,32,Tuscaloosa,Alabama,Tuscaloosa Alabama ,Central,5,TRUE,33.2098407,-87.5691735,Spokane,Washington,Spokane Washington,Pacific,3,TRUE,47.6587802,-117.4260466,Central Pacific,West,-29.8568731,2,1,2966.03877,1843.011047
2024,1909,0,1032,Saint Mary's,5,32,Moraga,California,Moraga California ,Pacific,3,TRUE,37.8349263,-122.1296871,Spokane,Washington,Spokane Washington,Pacific,3,TRUE,47.6587802,-117.4260466,Pacific Pacific,East,4.7036405,0,0,1157.345998,719.1414626
2024,1908,0,1063,Duke,4,32,Durham,North Carolina,Durham North Carolina ,Eastern,6,TRUE,35.9940329,-78.898619,Brooklyn,New York,Brooklyn New York,Eastern,6,TRUE,40.6781784,-73.9441579,Eastern Eastern,East,4.9544611,0,0,676.5186396,420.3691936
2024,1907,0,1013,Wisconsin,5,32,Madison,Wisconsin,Madison Wisconsin ,Central,5,TRUE,43.0721661,-89.4007501,Brooklyn,New York,Brooklyn New York,Eastern,6,TRUE,40.6781784,-73.9441579,Central Eastern,East,15.4565922,1,1,1305.124185,810.9665709
2024,1906,0,1051,Kansas,4,32,Lawrence,Kansas,Lawrence Kansas ,Central,5,TRUE,38.9716689,-95.2352501,Salt Lake City,Utah,Salt Lake City Utah,Mountain,4,TRUE,40.7607793,-111.8910474,Central Mountain,West,-16.6557973,1,1,1433.150811,890.5186283
2024,1905,0,1059,Gonzaga,5,32,Spokane,Washington,Spokane Washington ,Pacific,3,TRUE,47.6587802,-117.4260466,Salt Lake City,Utah,Salt Lake City Utah,Mountain,4,TRUE,40.7607793,-111.8910474,Pacific Mountain,East,5.5349992,1,1,884.2898193,549.4722193
2024,1904,0,1067,Connecticut,1,16,Storrs,Connecticut,Storrs Connecticut ,Eastern,6,TRUE,41.8084314,-72.2495231,Boston,Massachusetts,Boston Massachusetts,Eastern,6,TRUE,42.361145,-71.057083,Eastern Eastern,East,1.1924401,0,0,116.0183379,72.09045294
2024,1903,0,1076,Auburn,4,16,Auburn,Alabama,Auburn Alabama ,Central,5,TRUE,32.6098566,-85.4807825,Boston,Massachusetts,Boston Massachusetts,Eastern,6,TRUE,42.361145,-71.057083,Central Eastern,East,14.4236995,1,1,1667.737786,1036.284216
2024,1902,0,1067,Connecticut,1,16,Storrs,Connecticut,Storrs Connecticut ,Eastern,6,TRUE,41.8084314,-72.2495231,Boston,Massachusetts,Boston Massachusetts,Eastern,6,TRUE,42.361145,-71.057083,Eastern Eastern,East,1.1924401,0,0,116.0183379,72.09045294
2024,1901,0,1029,San Diego St.,5,16,San Diego,California,San Diego California ,Pacific,3,TRUE,32.715738,-117.1610838,Boston,Massachusetts,Boston Massachusetts,Eastern,6,TRUE,42.361145,-71.057083,Pacific Eastern,East,46.1040008,3,3,4150.210722,2578.821384
2024,1900,0,1038,North Carolina,1,16,Chapel Hill,North Carolina,Chapel Hill North Carolina ,Eastern,6,TRUE,35.9131996,-79.0558445,Los Angeles,California,Los Angeles California,Pacific,3,TRUE,34.052235,-118.243683,Eastern Pacific,West,-39.1878385,3,-3,3552.27556,2207.2817
2024,1899,0,1078,Alabama,4,16,Tuscaloosa,Alabama,Tuscaloosa Alabama ,Central,5,TRUE,33.2098407,-87.5691735,Los Angeles,California,Los Angeles California,Pacific,3,TRUE,34.052235,-118.243683,Central Pacific,West,-30.6745095,2,-2,2830.834706,1758.999136
2024,1898,0,1038,North Carolina,1,16,Chapel Hill,North Carolina,Chapel Hill North Carolina ,Eastern,6,TRUE,35.9131996,-79.0558445,Los Angeles,California,Los Angeles California,Pacific,3,TRUE,34.052235,-118.243683,Eastern Pacific,West,-39.1878385,3,-3,3552.27556,2207.2817
2024,1897,0,1032,Saint Mary's,5,16,Moraga,California,Moraga California ,Pacific,3,TRUE,37.8349263,-122.1296871,Los Angeles,California,Los Angeles California,Pacific,3,TRUE,34.052235,-118.243683,Pacific Pacific,East,3.8860041,0,0,546.9622607,339.8665921
2024,1896,0,1056,Houston,1,16,Houston,Texas,Houston Texas ,Central,5,TRUE,29.7604267,-95.3698028,Dallas,Texas,Dallas Texas,Central,5,TRUE,32.779167,-96.808891,Central Central,West,-1.4390882,0,0,362.4514869,225.2169125
2024,1895,0,1063,Duke,4,16,Durham,North Carolina,Durham North Carolina ,Eastern,6,TRUE,35.9940329,-78.898619,Dallas,Texas,Dallas Texas,Central,5,TRUE,32.779167,-96.808891,Eastern Central,West,-17.910272,1,-1,1679.3238,1043.483432
2024,1894,0,1056,Houston,1,16,Houston,Texas,Houston Texas ,Central,5,TRUE,29.7604267,-95.3698028,Dallas,Texas,Dallas Texas,Central,5,TRUE,32.779167,-96.808891,Central Central,West,-1.4390882,0,0,362.4514869,225.2169125
2024,1893,0,1013,Wisconsin,5,16,Madison,Wisconsin,Madison Wisconsin ,Central,5,TRUE,43.0721661,-89.4007501,Dallas,Texas,Dallas Texas,Central,5,TRUE,32.779167,-96.808891,Central Central,West,-7.4081409,0,0,1314.810993,816.9856742
2024,1892,0,1033,Purdue,1,16,West Lafayette,Indiana,West Lafayette Indiana ,Eastern,6,TRUE,40.4258686,-86.9080655,Detroit,Michigan,Detroit Michigan,Eastern,6,TRUE,42.331429,-83.045753,Eastern Eastern,East,3.8623125,0,0,385.6118203,239.6080765
2024,1891,0,1051,Kansas,4,16,Lawrence,Kansas,Lawrence Kansas ,Central,5,TRUE,38.9716689,-95.2352501,Detroit,Michigan,Detroit Michigan,Eastern,6,TRUE,42.331429,-83.045753,Central Eastern,East,12.1894971,1,1,1092.86846,679.0769777
2024,1890,0,1033,Purdue,1,16,West Lafayette,Indiana,West Lafayette Indiana ,Eastern,6,TRUE,40.4258686,-86.9080655,Detroit,Michigan,Detroit Michigan,Eastern,6,TRUE,42.331429,-83.045753,Eastern Eastern,East,3.8623125,0,0,385.6118203,239.6080765
2024,1889,0,1059,Gonzaga,5,16,Spokane,Washington,Spokane Washington ,Pacific,3,TRUE,47.6587802,-117.4260466,Detroit,Michigan,Detroit Michigan,Eastern,6,TRUE,42.331429,-83.045753,Pacific Eastern,East,34.3802936,3,3,2743.638378,1704.81785
2023,1888,1888,1011,Alabama,1,16,Tuscaloosa,Alabama,Tuscaloosa Alabama ,Central,5,TRUE,33.2098407,-87.5691735,Birmingham,Alabama,Birmingham Alabama ,Central,5,TRUE,33.5185892,-86.8103567,Central Central,East,0.7588168,0,0,78.38804041,48.70807013
2023,1887,1887,955,Texas A&M Corpus Chris,16,64,Corpus Christi,Texas,Corpus Christi Texas,Central,5,TRUE,27.800583,-97.396378,Birmingham,Alabama,Birmingham Alabama ,Central,5,TRUE,33.5185892,-86.8103567,Central Central,East,10.5860213,0,0,1194.586301,742.281514
2023,1886,1886,979,Maryland,8,32,College Park,Maryland,College Park Maryland ,Eastern,6,TRUE,38.9896967,-76.93776,Birmingham,Alabama,Birmingham Alabama ,Central,5,TRUE,33.5185892,-86.8103567,Eastern Central,West,-9.8725967,1,-1,1073.097321,666.791762
2023,1885,1885,945,West Virginia,9,64,Morgantown,West Virginia,Morgantown West Virginia ,Eastern,6,TRUE,39.629526,-79.9558968,Birmingham,Alabama,Birmingham Alabama ,Central,5,TRUE,33.5185892,-86.8103567,Eastern Central,West,-6.8544599,1,-1,913.941441,567.8968829
2023,1884,1884,961,San Diego St.,5,2,San Diego,California,San Diego California ,Pacific,3,TRUE,32.715738,-117.1610838,Orlando,Florida,Orlando Florida ,Eastern,6,TRUE,28.5383832,-81.3789269,Pacific Eastern,East,35.7821569,3,3,3438.850424,2136.802588
2023,1883,1883,1003,College of Charleston,12,64,Charleston,South Carolina,Charleston South Carolina ,Eastern,6,TRUE,32.7764749,-79.9310512,Orlando,Florida,Orlando Florida ,Eastern,6,TRUE,28.5383832,-81.3789269,Eastern Eastern,West,-1.4478757,0,0,491.164553,305.1955039
2023,1882,1882,946,Virginia,4,64,Charlottesville,Virginia,Charlottesville Virginia ,Eastern,6,TRUE,38.0293059,-78.4766781,Orlando,Florida,Orlando Florida ,Eastern,6,TRUE,28.5383832,-81.3789269,Eastern Eastern,West,-2.9022488,0,0,1089.100067,676.7354071
2023,1881,1881,996,Furman,13,32,Greenville,South Carolina,Greenville South Carolina,Eastern,6,TRUE,34.852619,-82.394012,Orlando,Florida,Orlando Florida ,Eastern,6,TRUE,28.5383832,-81.3789269,Eastern Eastern,East,1.0150851,0,0,708.6339939,440.3247496
2023,1880,1880,1001,Creighton,6,8,Omaha,Nebraska,Omaha Nebraska ,Central,5,TRUE,41.2565369,-95.9345034,Denver,Colorado,Denver Colorado ,Mountain,4,TRUE,39.7392358,-104.990251,Central Mountain,West,-9.0557476,1,-1,783.6856367,486.9596784
2023,1879,1879,971,North Carolina St.,11,64,Raleigh,North Carolina,Raleigh North Carolina ,Eastern,6,TRUE,35.7795897,-78.6381787,Denver,Colorado,Denver Colorado ,Mountain,4,TRUE,39.7392358,-104.990251,Eastern Mountain,West,-26.3520723,2,-2,2349.177603,1459.711288
2023,1878,1878,1006,Baylor,3,32,Waco,Texas,Waco Texas ,Central,5,TRUE,31.549333,-97.1466695,Denver,Colorado,Denver Colorado ,Mountain,4,TRUE,39.7392358,-104.990251,Central Mountain,West,-7.8435815,1,-1,1152.924051,716.3937923
2023,1877,1877,953,UC Santa Barbara,14,64,Santa Barbara,California,Santa Barbara California ,Pacific,3,TRUE,34.4208305,-119.6981901,Denver,Colorado,Denver Colorado ,Mountain,4,TRUE,39.7392358,-104.990251,Pacific Mountain,East,14.7079391,1,1,1430.165372,888.6635625
2023,1876,1876,974,Missouri,7,32,Columbia,Missouri,Columbia Missouri ,Central,5,TRUE,38.9517053,-92.3340724,Sacramento,California,Sacramento California ,Pacific,3,TRUE,38.5815719,-121.4943996,Central Pacific,West,-29.1603272,2,-2,2517.639048,1564.388377
2023,1875,1875,949,Utah St.,10,64,Logan,Utah,Logan Utah ,Mountain,4,TRUE,41.7369803,-111.8338359,Sacramento,California,Sacramento California ,Pacific,3,TRUE,38.5815719,-121.4943996,Mountain Pacific,West,-9.6605637,1,-1,892.1282187,554.3427749
2023,1874,1874,1010,Arizona,2,64,Tucson,Arizona,Tucson Arizona ,Mountain,3,FALSE,32.2539787,-110.9741769,Sacramento,California,Sacramento California ,Pacific,3,TRUE,38.5815719,-121.4943996,Mountain Pacific,West,-10.5202227,0,0,1183.504607,735.3956685
2023,1873,1873,965,Princeton,15,16,Princeton,New Jersey,Princeton New Jersey ,Eastern,6,TRUE,40.3572976,-74.6672226,Sacramento,California,Sacramento California ,Pacific,3,TRUE,38.5815719,-121.4943996,Eastern Pacific,West,-46.827177,3,-3,3977.089501,2471.248845
2023,1872,1872,963,Purdue,1,64,West Lafayette,Indiana,West Lafayette Indiana ,Eastern,6,TRUE,40.4258686,-86.9080655,Columbus,Ohio,Columbus Ohio ,Eastern,6,TRUE,39.9611755,-82.9987942,Eastern Eastern,East,3.9092713,0,0,336.0140076,208.7894245
2023,1871,1871,998,Fairleigh Dickinson,16,32,Teaneck,New Jersey,Teaneck New Jersey ,Eastern,6,TRUE,40.8932469,-74.0116536,Columbus,Ohio,Columbus Ohio ,Eastern,6,TRUE,39.9611755,-82.9987942,Eastern Eastern,West,-8.9871406,0,0,767.3918232,476.8351721
2023,1870,1870,978,Memphis,8,64,Memphis,Tennessee,Memphis Tennessee ,Central,5,TRUE,35.1495343,-90.0489801,Columbus,Ohio,Columbus Ohio ,Eastern,6,TRUE,39.9611755,-82.9987942,Central Eastern,East,7.0501859,1,1,819.5654987,509.254391
2023,1869,1869,997,Florida Atlantic,9,4,Boca Raton,Florida,Boca Raton Florida,Eastern,6,TRUE,26.376032,-80.12236,Columbus,Ohio,Columbus Ohio ,Eastern,6,TRUE,39.9611755,-82.9987942,Eastern Eastern,West,-2.8764342,0,0,1533.887935,953.1137747
2023,1868,1868,999,Duke,5,32,Durham,North Carolina,Durham North Carolina ,Eastern,6,TRUE,35.9940329,-78.898619,Orlando,Florida,Orlando Florida ,Eastern,6,TRUE,28.5383832,-81.3789269,Eastern Eastern,West,-2.4803079,0,0,861.1069363,535.0670436
2023,1867,1867,968,Oral Roberts,12,64,Tulsa,Oklahoma,Tulsa Oklahoma ,Central,5,TRUE,36.1539816,-95.992775,Orlando,Florida,Orlando Florida ,Eastern,6,TRUE,28.5383832,-81.3789269,Central Eastern,East,14.6138481,1,1,1610.191662,1000.526713
2023,1866,1866,958,Tennessee,4,16,Knoxville,Tennessee,Knoxville Tennessee ,Eastern,6,TRUE,35.9606384,-83.9207392,Orlando,Florida,Orlando Florida ,Eastern,6,TRUE,28.5383832,-81.3789269,Eastern Eastern,East,2.5418123,0,0,859.1313572,533.8394757
2023,1865,1865,981,Louisiana Lafayette,13,64,Lafayette,Louisiana,Lafayette Louisiana ,Central,5,TRUE,30.2240897,-92.0198427,Orlando,Florida,Orlando Florida ,Eastern,6,TRUE,28.5383832,-81.3789269,Central Eastern,East,10.6409158,1,1,1047.500406,650.8865764
2023,1864,1864,982,Kentucky,6,32,Lexington,Kentucky,Lexington Kentucky ,Eastern,6,TRUE,38.0405837,-84.5037164,Greensboro,North Carolina,Greensboro North Carolina ,Eastern,6,TRUE,36.0726354,-79.7919754,Eastern Eastern,East,4.711741,0,0,471.8249042,293.1784032
2023,1863,1863,964,Providence,11,64,Providence,Rhode Island,Providence Rhode Island ,Eastern,6,TRUE,41.8239891,-71.4128343,Greensboro,North Carolina,Greensboro North Carolina ,Eastern,6,TRUE,36.0726354,-79.7919754,Eastern Eastern,West,-8.3791411,0,0,965.5927532,599.9915203
2023,1862,1862,985,Kansas St.,3,8,Manhattan,Kansas,Manhattan Kansas ,Central,5,TRUE,39.1836082,-96.5716694,Greensboro,North Carolina,Greensboro North Carolina ,Eastern,6,TRUE,36.0726354,-79.7919754,Central Eastern,East,16.779694,1,1,1515.238357,941.5254646
2023,1861,1861,973,Montana St.,14,64,Bozeman,Montana,Bozeman Montana ,Mountain,4,TRUE,45.6814733,-111.0319925,Greensboro,North Carolina,Greensboro North Carolina ,Eastern,6,TRUE,36.0726354,-79.7919754,Mountain Eastern,East,31.2400171,2,2,2813.109794,1747.985386
2023,1860,1860,976,Michigan St.,7,16,East Lansing,Michigan,East Lansing Michigan ,Eastern,6,TRUE,42.7369792,-84.4838654,Columbus,Ohio,Columbus Ohio ,Eastern,6,TRUE,39.9611755,-82.9987942,Eastern Eastern,East,1.4850712,0,0,332.6030395,206.6699472
2023,1859,1859,950,USC,10,64,Los Angeles,California,Los Angeles California ,Pacific,3,TRUE,34.0522342,-118.2436849,Columbus,Ohio,Columbus Ohio ,Eastern,6,TRUE,39.9611755,-82.9987942,Pacific Eastern,East,35.2448907,3,3,3176.248185,1973.629122
2023,1858,1858,980,Marquette,2,32,Milwaukee,Wisconsin,Milwaukee Wisconsin ,Central,5,TRUE,43.0389025,-87.9064736,Columbus,Ohio,Columbus Ohio ,Eastern,6,TRUE,39.9611755,-82.9987942,Central Eastern,East,4.9076794,1,1,532.9027231,331.1304004
2023,1857,1857,947,Vermont,15,64,Burlington,Vermont,Burlington Vermont ,Eastern,6,TRUE,44.4758825,-73.212072,Columbus,Ohio,Columbus Ohio ,Eastern,6,TRUE,39.9611755,-82.9987942,Eastern Eastern,West,-9.7867222,0,0,948.5052146,589.373816
2023,1856,1856,993,Houston,1,16,Houston,Texas,Houston Texas ,Central,5,TRUE,29.7604267,-95.3698028,Birmingham,Alabama,Birmingham Alabama ,Central,5,TRUE,33.5185892,-86.8103567,Central Central,East,8.5594461,0,0,911.2508311,566.2250153
2023,1855,1855,970,Northern Kentucky,16,64,Highland Heights,Kentucky,Highland Heights Kentucky ,Eastern,6,TRUE,39.0331169,-84.4518854,Birmingham,Alabama,Birmingham Alabama ,Central,5,TRUE,33.5185892,-86.8103567,Eastern Central,West,-2.3584713,1,-1,648.5400463,402.9841018
2023,1854,1854,988,Iowa,8,64,Iowa City,Iowa,Iowa City Iowa ,Central,5,TRUE,41.6578257,-91.5346169,Birmingham,Alabama,Birmingham Alabama ,Central,5,TRUE,33.5185892,-86.8103567,Central Central,East,4.7242602,0,0,995.7560418,618.7341189
2023,1853,1853,1007,Auburn,9,32,Auburn,Alabama,Auburn Alabama ,Central,5,TRUE,32.6098566,-85.4807825,Birmingham,Alabama,Birmingham Alabama ,Central,5,TRUE,33.5185892,-86.8103567,Central Central,West,-1.3295742,0,0,159.8771599,99.34306148
2023,1852,1852,977,Miami FL,5,4,Miami,Florida,Miami Florida ,Eastern,6,TRUE,25.7616798,-80.1917902,Albany,New York,Albany New York ,Eastern,6,TRUE,42.6525793,-73.7562317,Eastern Eastern,East,6.4355585,0,0,1967.638682,1222.633994
2023,1851,1851,1000,Drake,12,64,Des Moines,Iowa,Des Moines Iowa ,Central,5,TRUE,41.5868353,-93.6249593,Albany,New York,Albany New York ,Eastern,6,TRUE,42.6525793,-73.7562317,Central Eastern,East,19.8687276,1,1,1639.230507,1018.570615
2023,1850,1850,990,Indiana,4,32,Bloomington,Indiana,Bloomington Indiana ,Eastern,6,TRUE,39.165325,-86.5263857,Albany,New York,Albany New York ,Eastern,6,TRUE,42.6525793,-73.7562317,Eastern Eastern,East,12.770154,0,0,1139.650634,708.1460732
2023,1849,1849,983,Kent St.,13,64,Kent,Ohio,Kent Ohio ,Eastern,6,TRUE,41.1536674,-81.3578859,Albany,New York,Albany New York ,Eastern,6,TRUE,42.6525793,-73.7562317,Eastern Eastern,East,7.6016542,0,0,650.5553311,404.2363417
2023,1848,1848,987,Iowa St.,6,64,Ames,Iowa,Ames Iowa ,Central,5,TRUE,42.0307812,-93.6319131,Greensboro,North Carolina,Greensboro North Carolina ,Eastern,6,TRUE,36.0726354,-79.7919754,Central Eastern,East,13.8399377,1,1,1364.035116,847.5721263
2023,1847,1847,966,Pittsburgh,11,32,Pittsburgh,Pennsylvania,Pittsburgh Pennsylvania ,Eastern,6,TRUE,40.4406248,-79.9958864,Greensboro,North Carolina,Greensboro North Carolina ,Eastern,6,TRUE,36.0726354,-79.7919754,Eastern Eastern,East,0.203911,0,0,486.0236246,302.0010791
2023,1846,1846,944,Xavier,3,16,Cincinnati,Ohio,Cincinnati Ohio ,Eastern,6,TRUE,39.1031182,-84.5120196,Greensboro,North Carolina,Greensboro North Carolina ,Eastern,6,TRUE,36.0726354,-79.7919754,Eastern Eastern,East,4.7200442,0,0,535.1384978,332.5196464
2023,1845,1845,984,Kennesaw St.,14,64,Kennesaw,Georgia,Kennesaw Georgia,Eastern,6,TRUE,34.02183325,-84.60949756,Greensboro,North Carolina,Greensboro North Carolina ,Eastern,6,TRUE,36.0726354,-79.7919754,Eastern Eastern,East,4.817522162,0,0,494.2085701,307.0869684
2023,1844,1844,956,Texas A&M,7,64,College Station,Texas,College Station Texas ,Central,5,TRUE,30.627977,-96.3344068,Des Moines,Iowa,Des Moines Iowa ,Central,5,TRUE,41.5868353,-93.6249593,Central Central,East,2.7094475,0,0,1242.4498,772.0225136
2023,1843,1843,967,Penn St.,10,32,University Park,Pennsylvania,University Park Pennsylvania ,Eastern,6,TRUE,40.8147955,-77.8653126,Des Moines,Iowa,Des Moines Iowa ,Central,5,TRUE,41.5868353,-93.6249593,Eastern Central,West,-15.7596467,1,-1,1319.46188,819.8756016
2023,1842,1842,957,Texas ,2,8,Austin,Texas,Austin Texas ,Central,5,TRUE,30.267153,-97.7430608,Des Moines,Iowa,Des Moines Iowa ,Central,5,TRUE,41.5868353,-93.6249593,Central Central,East,4.1181015,0,0,1311.72395,815.0674749
2023,1841,1841,1004,Colgate,15,64,Hamilton,New York,Hamilton New York ,Eastern,6,TRUE,42.8270136,-75.5446238,Des Moines,Iowa,Des Moines Iowa ,Central,5,TRUE,41.5868353,-93.6249593,Eastern Central,West,-18.0803355,1,-1,1492.661127,927.4966241
2023,1840,1840,986,Kansas,1,32,Lawrence,Kansas,Lawrence Kansas ,Central,5,TRUE,38.9716689,-95.2352501,Des Moines,Iowa,Des Moines Iowa ,Central,5,TRUE,41.5868353,-93.6249593,Central Central,East,1.6102908,0,0,321.263181,199.6236858
2023,1839,1839,992,Howard,16,64,Champaign,Illinois,Champaign Illinois ,Central,5,TRUE,40.1164204,-88.2433829,Des Moines,Iowa,Des Moines Iowa ,Central,5,TRUE,41.5868353,-93.6249593,Central Central,West,-5.3815764,0,0,481.156599,298.9768496
2023,1838,1838,1008,Arkansas,8,16,Fayetteville,Arkansas,Fayetteville Arkansas ,Central,5,TRUE,36.0626579,-94.1605839,Des Moines,Iowa,Des Moines Iowa ,Central,5,TRUE,41.5868353,-93.6249593,Central Central,East,0.5356246,0,0,616.0059993,382.7683822
2023,1837,1837,991,Illinois,9,64,Champaign,Illinois,Champaign Illinois ,Central,5,TRUE,40.1164204,-88.2433829,Des Moines,Iowa,Des Moines Iowa ,Central,5,TRUE,41.5868353,-93.6249593,Central Central,West,-5.3815764,0,0,481.156599,298.9768496
2023,1836,1836,962,Saint Mary's,5,32,Moraga,California,Moraga California ,Pacific,3,TRUE,37.8349263,-122.1296871,Albany,New York,Albany New York ,Eastern,6,TRUE,42.6525793,-73.7562317,Pacific Eastern,East,48.3734554,3,3,4084.271935,2537.848922
2023,1835,1835,948,VCU,12,64,Richmond,Virginia,Richmond Virginia ,Eastern,6,TRUE,37.5407246,-77.4360481,Albany,New York,Albany New York ,Eastern,6,TRUE,42.6525793,-73.7562317,Eastern Eastern,East,3.6798164,0,0,648.7263707,403.0998784
2023,1834,1834,1002,Connecticut,4,1,Storrs,Connecticut,Storrs Connecticut ,Eastern,6,TRUE,41.8084314,-72.2495231,Albany,New York,Albany New York ,Eastern,6,TRUE,42.6525793,-73.7562317,Eastern Eastern,West,-1.5067086,0,0,155.5585056,96.6595741
2023,1833,1833,989,Iona,13,64,New Rochelle,New York,New Rochelle New York ,Eastern,6,TRUE,40.9114882,-73.7823549,Albany,New York,Albany New York ,Eastern,6,TRUE,42.6525793,-73.7562317,Eastern Eastern,East,0.0261232,0,0,193.6124471,120.3051971
2023,1832,1832,959,TCU,6,32,Fort Worth,Texas,Fort Worth Texas ,Central,5,TRUE,32.7554883,-97.3307658,Denver,Colorado,Denver Colorado ,Mountain,4,TRUE,39.7392358,-104.990251,Central Mountain,West,-7.6594852,1,-1,1035.883684,643.6682799
2023,1831,1831,1009,Arizona St.,11,64,Tempe,Arizona,Tempe Arizona ,Mountain,3,FALSE,33.4255104,-111.9400054,Denver,Colorado,Denver Colorado ,Mountain,4,TRUE,39.7392358,-104.990251,Mountain Mountain,East,6.9497544,1,1,936.3481093,581.819741
2023,1830,1830,995,Gonzaga,3,8,Spokane,Washington,Spokane Washington ,Pacific,3,TRUE,47.6587802,-117.4260466,Denver,Colorado,Denver Colorado ,Mountain,4,TRUE,39.7392358,-104.990251,Pacific Mountain,East,12.4357956,1,1,1329.327972,826.0061068
2023,1829,1829,994,Grand Canyon,14,64,Phoenix,Arizona,Phoenix Arizona ,Mountain,3,FALSE,33.4483771,-112.0740373,Denver,Colorado,Denver Colorado ,Mountain,4,TRUE,39.7392358,-104.990251,Mountain Mountain,East,7.0837863,1,1,942.3457434,585.5464981
2023,1828,1828,969,Northwestern,7,32,Evanston,Illinois,Evanston Illinois ,Central,5,TRUE,42.0450722,-87.6876969,Sacramento,California,Sacramento California ,Pacific,3,TRUE,38.5815719,-121.4943996,Central Pacific,West,-33.8067027,2,-2,2873.216761,1785.334124
2023,1827,1827,1005,Boise St.,10,64,Boise,Idaho,Boise Idaho ,Mountain,4,TRUE,43.6150186,-116.2023137,Sacramento,California,Sacramento California ,Pacific,3,TRUE,38.5815719,-121.4943996,Mountain Pacific,West,-5.2920859,1,-1,713.7415168,443.4984173
2023,1826,1826,952,UCLA,2,16,Los Angeles,California,Los Angeles California ,Pacific,3,TRUE,34.0522342,-118.2436849,Sacramento,California,Sacramento California ,Pacific,3,TRUE,38.5815719,-121.4943996,Pacific Pacific,West,-3.2507147,0,0,581.6828451,361.440963
2023,1825,1825,951,UNC Asheville,15,64,Asheville,North Carolina,Asheville North Carolina ,Eastern,6,TRUE,35.5950581,-82.5514869,Sacramento,California,Sacramento California ,Pacific,3,TRUE,38.5815719,-121.4943996,Eastern Pacific,West,-38.9429127,3,-3,3444.392373,2140.246195
2023,1824,930,1011,Alabama,1,16,Tuscaloosa,Alabama,Tuscaloosa Alabama ,Central,5,TRUE,33.2098407,-87.5691735,Birmingham,Alabama,Birmingham Alabama ,Central,5,TRUE,33.5185892,-86.8103567,Central Central,East,0.7588168,0,0,78.38804041,48.70807013
2023,1823,929,979,Maryland,8,32,College Park,Maryland,College Park Maryland ,Eastern,6,TRUE,38.9896967,-76.93776,Birmingham,Alabama,Birmingham Alabama ,Central,5,TRUE,33.5185892,-86.8103567,Eastern Central,West,-9.8725967,1,-1,1073.097321,666.791762
2023,1822,928,961,San Diego St.,5,2,San Diego,California,San Diego California ,Pacific,3,TRUE,32.715738,-117.1610838,Orlando,Florida,Orlando Florida ,Eastern,6,TRUE,28.5383832,-81.3789269,Pacific Eastern,East,35.7821569,3,3,3438.850424,2136.802588
2023,1821,927,996,Furman,13,32,Greenville,South Carolina,Greenville South Carolina,Eastern,6,TRUE,34.852619,-82.394012,Orlando,Florida,Orlando Florida ,Eastern,6,TRUE,28.5383832,-81.3789269,Eastern Eastern,East,1.0150851,0,0,708.6339939,440.3247496
2023,1820,926,1001,Creighton,6,8,Omaha,Nebraska,Omaha Nebraska ,Central,5,TRUE,41.2565369,-95.9345034,Denver,Colorado,Denver Colorado ,Mountain,4,TRUE,39.7392358,-104.990251,Central Mountain,West,-9.0557476,1,-1,783.6856367,486.9596784
2023,1819,925,1006,Baylor,3,32,Waco,Texas,Waco Texas ,Central,5,TRUE,31.549333,-97.1466695,Denver,Colorado,Denver Colorado ,Mountain,4,TRUE,39.7392358,-104.990251,Central Mountain,West,-7.8435815,1,-1,1152.924051,716.3937923
2023,1818,924,974,Missouri,7,32,Columbia,Missouri,Columbia Missouri ,Central,5,TRUE,38.9517053,-92.3340724,Sacramento,California,Sacramento California ,Pacific,3,TRUE,38.5815719,-121.4943996,Central Pacific,West,-29.1603272,2,-2,2517.639048,1564.388377
2023,1817,923,965,Princeton,15,16,Princeton,New Jersey,Princeton New Jersey ,Eastern,6,TRUE,40.3572976,-74.6672226,Sacramento,California,Sacramento California ,Pacific,3,TRUE,38.5815719,-121.4943996,Eastern Pacific,West,-46.827177,3,-3,3977.089501,2471.248845
2023,1816,922,998,Fairleigh Dickinson,16,32,Teaneck,New Jersey,Teaneck New Jersey ,Eastern,6,TRUE,40.8932469,-74.0116536,Columbus,Ohio,Columbus Ohio ,Eastern,6,TRUE,39.9611755,-82.9987942,Eastern Eastern,West,-8.9871406,0,0,767.3918232,476.8351721
2023,1815,921,997,Florida Atlantic,9,4,Boca Raton,Florida,Boca Raton Florida,Eastern,6,TRUE,26.376032,-80.12236,Columbus,Ohio,Columbus Ohio ,Eastern,6,TRUE,39.9611755,-82.9987942,Eastern Eastern,West,-2.8764342,0,0,1533.887935,953.1137747
2023,1814,920,999,Duke,5,32,Durham,North Carolina,Durham North Carolina ,Eastern,6,TRUE,35.9940329,-78.898619,Orlando,Florida,Orlando Florida ,Eastern,6,TRUE,28.5383832,-81.3789269,Eastern Eastern,West,-2.4803079,0,0,861.1069363,535.0670436
2023,1813,919,958,Tennessee,4,16,Knoxville,Tennessee,Knoxville Tennessee ,Eastern,6,TRUE,35.9606384,-83.9207392,Orlando,Florida,Orlando Florida ,Eastern,6,TRUE,28.5383832,-81.3789269,Eastern Eastern,East,2.5418123,0,0,859.1313572,533.8394757
2023,1812,918,982,Kentucky,6,32,Lexington,Kentucky,Lexington Kentucky ,Eastern,6,TRUE,38.0405837,-84.5037164,Greensboro,North Carolina,Greensboro North Carolina ,Eastern,6,TRUE,36.0726354,-79.7919754,Eastern Eastern,East,4.711741,0,0,471.8249042,293.1784032
2023,1811,917,985,Kansas St.,3,8,Manhattan,Kansas,Manhattan Kansas ,Central,5,TRUE,39.1836082,-96.5716694,Greensboro,North Carolina,Greensboro North Carolina ,Eastern,6,TRUE,36.0726354,-79.7919754,Central Eastern,East,16.779694,1,1,1515.238357,941.5254646
2023,1810,916,976,Michigan St.,7,16,East Lansing,Michigan,East Lansing Michigan ,Eastern,6,TRUE,42.7369792,-84.4838654,Columbus,Ohio,Columbus Ohio ,Eastern,6,TRUE,39.9611755,-82.9987942,Eastern Eastern,East,1.4850712,0,0,332.6030395,206.6699472
2023,1809,915,980,Marquette,2,32,Milwaukee,Wisconsin,Milwaukee Wisconsin ,Central,5,TRUE,43.0389025,-87.9064736,Columbus,Ohio,Columbus Ohio ,Eastern,6,TRUE,39.9611755,-82.9987942,Central Eastern,East,4.9076794,1,1,532.9027231,331.1304004
2023,1808,914,993,Houston,1,16,Houston,Texas,Houston Texas ,Central,5,TRUE,29.7604267,-95.3698028,Birmingham,Alabama,Birmingham Alabama ,Central,5,TRUE,33.5185892,-86.8103567,Central Central,East,8.5594461,0,0,911.2508311,566.2250153
2023,1807,913,1007,Auburn,9,32,Auburn,Alabama,Auburn Alabama ,Central,5,TRUE,32.6098566,-85.4807825,Birmingham,Alabama,Birmingham Alabama ,Central,5,TRUE,33.5185892,-86.8103567,Central Central,West,-1.3295742,0,0,159.8771599,99.34306148
2023,1806,912,977,Miami FL,5,4,Miami,Florida,Miami Florida ,Eastern,6,TRUE,25.7616798,-80.1917902,Albany,New York,Albany New York ,Eastern,6,TRUE,42.6525793,-73.7562317,Eastern Eastern,East,6.4355585,0,0,1967.638682,1222.633994
2023,1805,911,990,Indiana,4,32,Bloomington,Indiana,Bloomington Indiana ,Eastern,6,TRUE,39.165325,-86.5263857,Albany,New York,Albany New York ,Eastern,6,TRUE,42.6525793,-73.7562317,Eastern Eastern,East,12.770154,0,0,1139.650634,708.1460732
2023,1804,910,966,Pittsburgh,11,32,Pittsburgh,Pennsylvania,Pittsburgh Pennsylvania ,Eastern,6,TRUE,40.4406248,-79.9958864,Greensboro,North Carolina,Greensboro North Carolina ,Eastern,6,TRUE,36.0726354,-79.7919754,Eastern Eastern,East,0.203911,0,0,486.0236246,302.0010791
2023,1803,909,944,Xavier,3,16,Cincinnati,Ohio,Cincinnati Ohio ,Eastern,6,TRUE,39.1031182,-84.5120196,Greensboro,North Carolina,Greensboro North Carolina ,Eastern,6,TRUE,36.0726354,-79.7919754,Eastern Eastern,East,4.7200442,0,0,535.1384978,332.5196464
2023,1802,908,967,Penn St.,10,32,University Park,Pennsylvania,University Park Pennsylvania ,Eastern,6,TRUE,40.8147955,-77.8653126,Des Moines,Iowa,Des Moines Iowa ,Central,5,TRUE,41.5868353,-93.6249593,Eastern Central,West,-15.7596467,1,-1,1319.46188,819.8756016
2023,1801,907,957,Texas ,2,8,Austin,Texas,Austin Texas ,Central,5,TRUE,30.267153,-97.7430608,Des Moines,Iowa,Des Moines Iowa ,Central,5,TRUE,41.5868353,-93.6249593,Central Central,East,4.1181015,0,0,1311.72395,815.0674749
2023,1800,906,986,Kansas,1,32,Lawrence,Kansas,Lawrence Kansas ,Central,5,TRUE,38.9716689,-95.2352501,Des Moines,Iowa,Des Moines Iowa ,Central,5,TRUE,41.5868353,-93.6249593,Central Central,East,1.6102908,0,0,321.263181,199.6236858
2023,1799,905,1008,Arkansas,8,16,Fayetteville,Arkansas,Fayetteville Arkansas ,Central,5,TRUE,36.0626579,-94.1605839,Des Moines,Iowa,Des Moines Iowa ,Central,5,TRUE,41.5868353,-93.6249593,Central Central,East,0.5356246,0,0,616.0059993,382.7683822
2023,1798,904,962,Saint Mary's,5,32,Moraga,California,Moraga California ,Pacific,3,TRUE,37.8349263,-122.1296871,Albany,New York,Albany New York ,Eastern,6,TRUE,42.6525793,-73.7562317,Pacific Eastern,East,48.3734554,3,3,4084.271935,2537.848922
2023,1797,903,1002,Connecticut,4,1,Storrs,Connecticut,Storrs Connecticut ,Eastern,6,TRUE,41.8084314,-72.2495231,Albany,New York,Albany New York ,Eastern,6,TRUE,42.6525793,-73.7562317,Eastern Eastern,West,-1.5067086,0,0,155.5585056,96.6595741
2023,1796,902,959,TCU,6,32,Fort Worth,Texas,Fort Worth Texas ,Central,5,TRUE,32.7554883,-97.3307658,Denver,Colorado,Denver Colorado ,Mountain,4,TRUE,39.7392358,-104.990251,Central Mountain,West,-7.6594852,1,-1,1035.883684,643.6682799
2023,1795,901,995,Gonzaga,3,8,Spokane,Washington,Spokane Washington ,Pacific,3,TRUE,47.6587802,-117.4260466,Denver,Colorado,Denver Colorado ,Mountain,4,TRUE,39.7392358,-104.990251,Pacific Mountain,East,12.4357956,1,1,1329.327972,826.0061068
2023,1794,900,969,Northwestern,7,32,Evanston,Illinois,Evanston Illinois ,Central,5,TRUE,42.0450722,-87.6876969,Sacramento,California,Sacramento California ,Pacific,3,TRUE,38.5815719,-121.4943996,Central Pacific,West,-33.8067027,2,-2,2873.216761,1785.334124
2023,1793,899,952,UCLA,2,16,Los Angeles,California,Los Angeles California ,Pacific,3,TRUE,34.0522342,-118.2436849,Sacramento,California,Sacramento California ,Pacific,3,TRUE,38.5815719,-121.4943996,Pacific Pacific,West,-3.2507147,0,0,581.6828451,361.440963
2023,1792,450,1011,Alabama,1,16,Tuscaloosa,Alabama,Tuscaloosa Alabama ,Central,5,TRUE,33.2098407,-87.5691735,Louisville,Kentucky,Louisville Kentucky ,Eastern,6,TRUE,38.2526647,-85.7584557,Central Eastern,East,1.8107178,1,1,584.0321883,362.9007772
2023,1791,449,961,San Diego St.,5,2,San Diego,California,San Diego California ,Pacific,3,TRUE,32.715738,-117.1610838,Louisville,Kentucky,Louisville Kentucky ,Eastern,6,TRUE,38.2526647,-85.7584557,Pacific Eastern,East,31.4026281,3,3,2894.499708,1798.558735
2023,1790,448,1001,Creighton,6,8,Omaha,Nebraska,Omaha Nebraska ,Central,5,TRUE,41.2565369,-95.9345034,Louisville,Kentucky,Louisville Kentucky ,Eastern,6,TRUE,38.2526647,-85.7584557,Central Eastern,East,10.1760477,1,1,931.1032556,578.56074
2023,1789,447,965,Princeton,15,16,Princeton,New Jersey,Princeton New Jersey ,Eastern,6,TRUE,40.3572976,-74.6672226,Louisville,Kentucky,Louisville Kentucky ,Eastern,6,TRUE,38.2526647,-85.7584557,Eastern Eastern,West,-11.0912331,0,0,981.8375074,610.0855426
2023,1788,446,997,Florida Atlantic,9,4,Boca Raton,Florida,Boca Raton Florida,Eastern,6,TRUE,26.376032,-80.12236,New York City,New York,New York City New York ,Eastern,6,TRUE,40.7127753,-74.0059728,Eastern Eastern,East,6.1163872,0,0,1690.769362,1050.595375
2023,1787,445,958,Tennessee,4,16,Knoxville,Tennessee,Knoxville Tennessee ,Eastern,6,TRUE,35.9606384,-83.9207392,New York City,New York,New York City New York ,Eastern,6,TRUE,40.7127753,-74.0059728,Eastern Eastern,East,9.9147664,0,0,1012.457306,629.111803
2023,1786,444,985,Kansas St.,3,8,Manhattan,Kansas,Manhattan Kansas ,Central,5,TRUE,39.1836082,-96.5716694,New York City,New York,New York City New York ,Eastern,6,TRUE,40.7127753,-74.0059728,Central Eastern,East,22.5656966,1,1,1925.783642,1196.626478
2023,1785,443,976,Michigan St.,7,16,East Lansing,Michigan,East Lansing Michigan ,Eastern,6,TRUE,42.7369792,-84.4838654,New York City,New York,New York City New York ,Eastern,6,TRUE,40.7127753,-74.0059728,Eastern Eastern,East,10.4778926,0,0,897.5520875,557.7130107
2023,1784,442,993,Houston,1,16,Houston,Texas,Houston Texas ,Central,5,TRUE,29.7604267,-95.3698028,Kansas City,Missouri,Kansas City Missouri ,Central,5,TRUE,39.0997265,-94.5785667,Central Central,East,0.7912361,0,0,1041.000788,646.8479006
2023,1783,441,977,Miami FL,5,4,Miami,Florida,Miami Florida ,Eastern,6,TRUE,25.7616798,-80.1917902,Kansas City,Missouri,Kansas City Missouri ,Central,5,TRUE,39.0997265,-94.5785667,Eastern Central,West,-14.3867765,1,-1,2000.441207,1243.016538
2023,1782,440,944,Xavier,3,16,Cincinnati,Ohio,Cincinnati Ohio ,Eastern,6,TRUE,39.1031182,-84.5120196,Kansas City,Missouri,Kansas City Missouri ,Central,5,TRUE,39.0997265,-94.5785667,Eastern Central,West,-10.0665471,1,-1,868.2038018,539.4768314
2023,1781,439,957,Texas ,2,8,Austin,Texas,Austin Texas ,Central,5,TRUE,30.267153,-97.7430608,Kansas City,Missouri,Kansas City Missouri ,Central,5,TRUE,39.0997265,-94.5785667,Central Central,East,3.1644941,0,0,1023.671963,636.0802684
2023,1780,438,1008,Arkansas,8,16,Fayetteville,Arkansas,Fayetteville Arkansas ,Central,5,TRUE,36.0626579,-94.1605839,Las Vegas,Nevada,Las Vegas Nevada ,Pacific,3,TRUE,36.171563,-115.1391009,Central Pacific,West,-20.978517,2,-2,1880.741458,1168.638562
2023,1779,437,1002,Connecticut,4,1,Storrs,Connecticut,Storrs Connecticut ,Eastern,6,TRUE,41.8084314,-72.2495231,Las Vegas,Nevada,Las Vegas Nevada ,Pacific,3,TRUE,36.171563,-115.1391009,Eastern Pacific,West,-42.8895778,3,-3,3720.157229,2311.598533
2023,1778,436,995,Gonzaga,3,8,Spokane,Washington,Spokane Washington ,Pacific,3,TRUE,47.6587802,-117.4260466,Las Vegas,Nevada,Las Vegas Nevada ,Pacific,3,TRUE,36.171563,-115.1391009,Pacific Pacific,East,2.2869457,0,0,1291.10014,802.252433
2023,1777,435,952,UCLA,2,16,Los Angeles,California,Los Angeles California ,Pacific,3,TRUE,34.0522342,-118.2436849,Las Vegas,Nevada,Las Vegas Nevada ,Pacific,3,TRUE,36.171563,-115.1391009,Pacific Pacific,East,3.104584,0,0,367.767579,228.520179
2023,1776,210,961,San Diego St.,5,2,San Diego,California,San Diego California ,Pacific,3,TRUE,32.715738,-117.1610838,Louisville,Kentucky,Louisville Kentucky ,Eastern,6,TRUE,38.2526647,-85.7584557,Pacific Eastern,East,31.4026281,3,3,2894.499708,1798.558735
2023,1775,209,1001,Creighton,6,8,Omaha,Nebraska,Omaha Nebraska ,Central,5,TRUE,41.2565369,-95.9345034,Louisville,Kentucky,Louisville Kentucky ,Eastern,6,TRUE,38.2526647,-85.7584557,Central Eastern,East,10.1760477,1,1,931.1032556,578.56074
2023,1774,208,997,Florida Atlantic,9,4,Boca Raton,Florida,Boca Raton Florida,Eastern,6,TRUE,26.376032,-80.12236,New York City,New York,New York City New York ,Eastern,6,TRUE,40.7127753,-74.0059728,Eastern Eastern,East,6.1163872,0,0,1690.769362,1050.595375
2023,1773,207,985,Kansas St.,3,8,Manhattan,Kansas,Manhattan Kansas ,Central,5,TRUE,39.1836082,-96.5716694,New York City,New York,New York City New York ,Eastern,6,TRUE,40.7127753,-74.0059728,Central Eastern,East,22.5656966,1,1,1925.783642,1196.626478
2023,1772,206,977,Miami FL,5,4,Miami,Florida,Miami Florida ,Eastern,6,TRUE,25.7616798,-80.1917902,Kansas City,Missouri,Kansas City Missouri ,Central,5,TRUE,39.0997265,-94.5785667,Eastern Central,West,-14.3867765,1,-1,2000.441207,1243.016538
2023,1771,205,957,Texas ,2,8,Austin,Texas,Austin Texas ,Central,5,TRUE,30.267153,-97.7430608,Kansas City,Missouri,Kansas City Missouri ,Central,5,TRUE,39.0997265,-94.5785667,Central Central,East,3.1644941,0,0,1023.671963,636.0802684
2023,1770,204,1002,Connecticut,4,1,Storrs,Connecticut,Storrs Connecticut ,Eastern,6,TRUE,41.8084314,-72.2495231,Las Vegas,Nevada,Las Vegas Nevada ,Pacific,3,TRUE,36.171563,-115.1391009,Eastern Pacific,West,-42.8895778,3,-3,3720.157229,2311.598533
2023,1769,203,995,Gonzaga,3,8,Spokane,Washington,Spokane Washington ,Pacific,3,TRUE,47.6587802,-117.4260466,Las Vegas,Nevada,Las Vegas Nevada ,Pacific,3,TRUE,36.171563,-115.1391009,Pacific Pacific,East,2.2869457,0,0,1291.10014,802.252433
2023,1768,90,961,San Diego St.,5,2,San Diego,California,San Diego California ,Pacific,3,TRUE,32.715738,-117.1610838,Houston,Texas,Houston Texas ,Central,5,TRUE,29.7604267,-95.3698028,Pacific Central,East,21.791281,2,2,2093.850246,1301.058224
2023,1767,89,997,Florida Atlantic,9,4,Boca Raton,Florida,Boca Raton Florida,Eastern,6,TRUE,26.376032,-80.12236,Houston,Texas,Houston Texas ,Central,5,TRUE,29.7604267,-95.3698028,Eastern Central,West,-15.2474428,1,-1,1541.295333,957.7165185
2023,1766,88,977,Miami FL,5,4,Miami,Florida,Miami Florida ,Eastern,6,TRUE,25.7616798,-80.1917902,Houston,Texas,Houston Texas ,Central,5,TRUE,29.7604267,-95.3698028,Eastern Central,West,-15.1780126,1,-1,1556.796116,967.3482586
2023,1765,87,1002,Connecticut,4,1,Storrs,Connecticut,Storrs Connecticut ,Eastern,6,TRUE,41.8084314,-72.2495231,Houston,Texas,Houston Texas ,Central,5,TRUE,29.7604267,-95.3698028,Eastern Central,West,-23.1202797,1,-1,2466.30661,1532.491879
2023,1764,30,961,San Diego St.,5,2,San Diego,California,San Diego California ,Pacific,3,TRUE,32.715738,-117.1610838,Houston,Texas,Houston Texas ,Central,5,TRUE,29.7604267,-95.3698028,Pacific Central,East,21.791281,2,2,2093.850246,1301.058224
2023,1763,29,1002,Connecticut,4,1,Storrs,Connecticut,Storrs Connecticut ,Eastern,6,TRUE,41.8084314,-72.2495231,Houston,Texas,Houston Texas ,Central,5,TRUE,29.7604267,-95.3698028,Eastern Central,West,-23.1202797,1,-1,2466.30661,1532.491879
2022,1762,1824,925,Gonzaga,1,16,Spokane,Washington,Spokane Washington ,Pacific,3,TRUE,47.6587802,-117.4260466,Portland,Oregon,Portland Oregon ,Pacific,3,TRUE,45.515232,-122.6783853,Pacific Pacific,West,-5.2523387,0,0,466.6632671,289.9711106
2022,1761,1823,926,Georgia St.,16,64,Atlanta,Georgia,Atlanta Georgia ,Eastern,6,TRUE,33.748752,-84.3876845,Portland,Oregon,Portland Oregon ,Pacific,3,TRUE,45.515232,-122.6783853,Eastern Pacific,West,-38.2907008,3,-3,3490.324147,2168.786877
2022,1760,1822,937,Boise St.,8,64,Boise,Idaho,Boise Idaho ,Mountain,4,TRUE,43.6150186,-116.2023137,Portland,Oregon,Portland Oregon ,Pacific,3,TRUE,45.515232,-122.6783853,Mountain Pacific,West,-6.4760716,1,-1,554.6393804,344.6369331
2022,1759,1821,912,Memphis,9,32,Memphis,Tennessee,Memphis Tennessee ,Central,5,TRUE,35.1495343,-90.0489801,Portland,Oregon,Portland Oregon ,Pacific,3,TRUE,45.515232,-122.6783853,Central Pacific,West,-32.6294052,2,-2,2970.556528,1845.818251
2022,1758,1820,931,Connecticut,5,64,Storrs,Connecticut,Storrs Connecticut ,Eastern,6,TRUE,41.8084314,-72.2495231,Buffalo,New York,Buffalo New York ,Eastern,6,TRUE,42.8864468,-78.8783689,Eastern Eastern,West,-6.6288458,0,0,557.6365545,346.4992907
2022,1757,1819,906,New Mexico St.,12,32,Las Cruces,New Mexico,Las Cruces New Mexico ,Mountain,4,TRUE,32.3199396,-106.7636538,Buffalo,New York,Buffalo New York ,Eastern,6,TRUE,42.8864468,-78.8783689,Mountain Eastern,East,27.8852849,2,2,2706.017242,1681.44116
2022,1756,1818,940,Arkansas,4,8,Fayetteville,Arkansas,Fayetteville Arkansas ,Central,5,TRUE,36.0626579,-94.1605839,Buffalo,New York,Buffalo New York ,Eastern,6,TRUE,42.8864468,-78.8783689,Central Eastern,East,15.282215,1,1,1511.947954,939.480903
2022,1755,1817,882,Vermont,13,64,Burlington,Vermont,Burlington Vermont ,Eastern,6,TRUE,44.4758825,-73.212072,Buffalo,New York,Buffalo New York ,Eastern,6,TRUE,42.8864468,-78.8783689,Eastern Eastern,West,-5.6662969,0,0,488.5998855,303.6018934
2022,1754,1816,942,Alabama,6,64,Tuscaloosa,Alabama,Tuscaloosa Alabama ,Central,5,TRUE,33.2098407,-87.5691735,San Diego,California,San Diego California ,Pacific,3,TRUE,32.715738,-117.1610838,Central Pacific,West,-29.5919103,2,-2,2752.063616,1710.05305
2022,1753,1815,903,Notre Dame,11,32,Notre Dame,Indiana,Notre Dame Indiana ,Eastern,6,TRUE,41.7001908,-86.2379328,San Diego,California,San Diego California ,Pacific,3,TRUE,32.715738,-117.1610838,Eastern Pacific,West,-30.923151,3,-3,2896.237701,1799.638673
2022,1752,1814,886,Texas Tech,3,16,Lubbock,Texas,Lubbock Texas ,Central,5,TRUE,33.5845617,-101.8456417,San Diego,California,San Diego California ,Pacific,3,TRUE,32.715738,-117.1610838,Central Pacific,West,-15.3154421,2,-2,1427.784808,887.1843481
2022,1751,1813,908,Montana St.,14,64,Bozeman,Montana,Bozeman Montana ,Mountain,4,TRUE,45.6814733,-111.0319925,San Diego,California,San Diego California ,Pacific,3,TRUE,32.715738,-117.1610838,Mountain Pacific,West,-6.1290913,1,-1,1534.218821,953.3193777
2022,1750,1812,909,Michigan St.,7,32,East Lansing,Michigan,East Lansing Michigan ,Eastern,6,TRUE,42.7369792,-84.4838654,Greenville,South Carolina,Greenville South Carolina ,Eastern,6,TRUE,34.8526176,-82.3940104,Eastern Eastern,East,2.089855,0,0,895.1273114,556.2063247
2022,1749,1811,929,Davidson,10,64,Davidson,North Carolina,Davidson North Carolina ,Eastern,6,TRUE,35.4993031,-80.8486846,Greenville,South Carolina,Greenville South Carolina ,Eastern,6,TRUE,34.8526176,-82.3940104,Eastern Eastern,West,-1.5453258,0,0,157.7879047,98.04485849
2022,1748,1810,927,Duke,2,4,Durham,North Carolina,Durham North Carolina ,Eastern,6,TRUE,35.9940329,-78.898619,Greenville,South Carolina,Greenville South Carolina ,Eastern,6,TRUE,34.8526176,-82.3940104,Eastern Eastern,West,-3.4953914,0,0,341.1798047,211.999302
2022,1747,1809,935,Cal St. Fullerton,15,64,Fullerton,California,Fullerton California ,Pacific,3,TRUE,33.8703645,-117.9242123,Greenville,South Carolina,Greenville South Carolina ,Eastern,6,TRUE,34.8526176,-82.3940104,Pacific Eastern,East,35.5302019,3,3,3246.013902,2016.979528
2022,1746,1808,938,Baylor,1,32,Waco,Texas,Waco Texas ,Central,5,TRUE,31.549333,-97.1466695,Fort Worth,Texas,Fort Worth Texas ,Central,5,TRUE,32.7554883,-97.3307658,Central Central,West,-0.1840963,0,0,135.233296,84.03007435
2022,1745,1807,905,Norfolk St.,16,64,Norfolk,Virginia,Norfolk Virginia ,Eastern,6,TRUE,36.8507689,-76.2858726,Fort Worth,Texas,Fort Worth Texas ,Central,5,TRUE,32.7554883,-97.3307658,Eastern Central,West,-21.0448932,1,-1,1970.276348,1224.272963
2022,1744,1806,904,North Carolina,8,2,Chapel Hill,North Carolina,Chapel Hill North Carolina ,Eastern,6,TRUE,35.9131996,-79.0558445,Fort Worth,Texas,Fort Worth Texas ,Central,5,TRUE,32.7554883,-97.3307658,Eastern Central,West,-18.2749213,1,-1,1711.621901,1063.552541
2022,1743,1805,913,Marquette,9,64,Milwaukee,Wisconsin,Milwaukee Wisconsin ,Central,5,TRUE,43.0389025,-87.9064736,Fort Worth,Texas,Fort Worth Texas ,Central,5,TRUE,32.7554883,-97.3307658,Central Central,West,-9.4242922,0,0,1409.10209,875.5754458
2022,1742,1804,897,Saint Mary's,5,32,Moraga,California,Moraga California ,Pacific,3,TRUE,37.8349263,-122.1296871,Portland,Oregon,Portland Oregon ,Pacific,3,TRUE,45.515232,-122.6783853,Pacific Pacific,West,-0.5486982,0,0,855.2191993,531.4085735
2022,1741,1803,922,Indiana,12,64,Bloomington,Indiana,Bloomington Indiana ,Eastern,6,TRUE,39.165325,-86.5263857,Portland,Oregon,Portland Oregon ,Pacific,3,TRUE,45.515232,-122.6783853,Eastern Pacific,West,-36.1519996,3,-3,3026.711273,1880.711192
2022,1740,1802,884,UCLA,4,16,Los Angeles,California,Los Angeles California ,Pacific,3,TRUE,34.0522342,-118.2436849,Portland,Oregon,Portland Oregon ,Pacific,3,TRUE,45.515232,-122.6783853,Pacific Pacific,West,-4.4347004,0,0,1329.195561,825.9238303
2022,1739,1801,943,Akron,13,64,Akron,Ohio,Akron Ohio ,Eastern,6,TRUE,41.0814447,-81.5190053,Portland,Oregon,Portland Oregon ,Pacific,3,TRUE,45.515232,-122.6783853,Eastern Pacific,West,-41.15938,3,-3,3330.012263,2069.17369
2022,1738,1800,889,Texas,6,32,Austin,Texas,Austin Texas ,Central,5,TRUE,30.267153,-97.7430608,Milwaukee,Wisconsin,Milwaukee Wisconsin ,Central,5,TRUE,43.0389025,-87.9064736,Central Central,East,9.8365872,0,0,1666.629504,1035.595562
2022,1737,1799,880,Virginia Tech,11,64,Blacksburg,Virginia,Blacksburg Virginia ,Eastern,6,TRUE,37.2295733,-80.4139393,Milwaukee,Wisconsin,Milwaukee Wisconsin ,Central,5,TRUE,43.0389025,-87.9064736,Eastern Central,West,-7.4925343,1,-1,906.4552801,563.2451981
2022,1736,1798,900,Purdue,3,16,West Lafayette,Indiana,West Lafayette Indiana ,Eastern,6,TRUE,40.4258686,-86.9080655,Milwaukee,Wisconsin,Milwaukee Wisconsin ,Central,5,TRUE,43.0389025,-87.9064736,Eastern Central,West,-0.9984081,1,-1,302.1298861,187.7348076
2022,1735,1797,876,Yale,14,64,New Haven,Connecticut,New Haven Connecticut ,Eastern,6,TRUE,41.308274,-72.9278835,Milwaukee,Wisconsin,Milwaukee Wisconsin ,Central,5,TRUE,43.0389025,-87.9064736,Eastern Central,West,-14.9785901,1,-1,1247.536342,775.1831442
2022,1734,1796,907,Murray St.,7,32,Murray,Kentucky,Murray Kentucky ,Central,5,TRUE,36.6103334,-88.314761,Indianapolis,Indiana,Indianapolis Indiana ,Eastern,6,TRUE,39.768403,-86.158068,Central Eastern,East,2.156693,1,1,398.5145951,247.6254891
2022,1733,1795,894,San Francisco,10,64,San Francisco,California,San Francisco California ,Pacific,3,TRUE,37.7749295,-122.4194155,Indianapolis,Indiana,Indianapolis Indiana ,Eastern,6,TRUE,39.768403,-86.158068,Pacific Eastern,East,36.2613475,3,3,3129.947648,1944.859302
2022,1732,1794,917,Kentucky,2,64,Lexington,Kentucky,Lexington Kentucky ,Eastern,6,TRUE,38.0405837,-84.5037164,Indianapolis,Indiana,Indianapolis Indiana ,Eastern,6,TRUE,39.768403,-86.158068,Eastern Eastern,West,-1.6543516,0,0,239.5818958,148.8692882
2022,1731,1793,896,Saint Peter's,15,8,Jersey City,New Jersey,Jersey City New Jersey ,Eastern,6,TRUE,40.7177545,-74.0431435,Indianapolis,Indiana,Indianapolis Indiana ,Eastern,6,TRUE,39.768403,-86.158068,Eastern Eastern,West,-12.1149245,0,0,1032.839434,641.7766704
2022,1730,1792,941,Arizona,1,16,Tucson,Arizona,Tucson Arizona ,Mountain,3,FALSE,32.2539787,-110.9741769,San Diego,California,San Diego California ,Pacific,3,TRUE,32.715738,-117.1610838,Mountain Pacific,West,-6.1869069,0,0,582.4932556,361.9445287
2022,1729,1791,878,Wright St.,16,64,Dayton,Ohio,Dayton Ohio ,Eastern,6,TRUE,39.7589478,-84.1916069,San Diego,California,San Diego California ,Pacific,3,TRUE,32.715738,-117.1610838,Eastern Pacific,West,-32.9694769,3,-3,3040.090414,1889.024605
2022,1728,1790,893,Seton Hall,8,64,South Orange,New Jersey,South Orange New Jersey ,Eastern,6,TRUE,40.7489277,-74.2609903,San Diego,California,San Diego California ,Pacific,3,TRUE,32.715738,-117.1610838,Eastern Pacific,West,-42.9000935,3,-3,3885.616312,2414.41004
2022,1727,1789,891,TCU,9,32,Fort Worth,Texas,Fort Worth Texas ,Central,5,TRUE,32.7554883,-97.3307658,San Diego,California,San Diego California ,Pacific,3,TRUE,32.715738,-117.1610838,Central Pacific,West,-19.830318,2,-2,1852.091475,1150.836288
2022,1726,1788,924,Houston,5,8,Houston,Texas,Houston Texas ,Central,5,TRUE,29.7604267,-95.3698028,Pittsburgh,Pennsylvania,Pittsburgh Pennsylvania ,Eastern,6,TRUE,40.4406248,-79.9958864,Central Eastern,East,15.3739164,1,1,1829.889344,1137.040523
2022,1725,1787,885,UAB,12,64,Birmingham,Alabama,Birmingham Alabama ,Central,5,TRUE,33.5185892,-86.8103567,Pittsburgh,Pennsylvania,Pittsburgh Pennsylvania ,Eastern,6,TRUE,40.4406248,-79.9958864,Central Eastern,East,6.8144703,1,1,978.5068119,608.0159443
2022,1724,1786,923,Illinois,4,32,Champaign,Illinois,Champaign Illinois ,Central,5,TRUE,40.1164204,-88.2433829,Pittsburgh,Pennsylvania,Pittsburgh Pennsylvania ,Eastern,6,TRUE,40.4406248,-79.9958864,Central Eastern,East,8.2474965,1,1,700.3225285,435.1602445
2022,1723,1785,934,Chattanooga,13,64,Chattanooga,Tennessee,Chattanooga Tennessee ,Eastern,6,TRUE,35.0457984,-85.3093995,Pittsburgh,Pennsylvania,Pittsburgh Pennsylvania ,Eastern,6,TRUE,40.4406248,-79.9958864,Eastern Eastern,East,5.3135131,0,0,760.0181367,472.2533757
2022,1722,1784,932,Colorado St.,6,64,Fort Collins,Colorado,Fort Collins Colorado ,Mountain,4,TRUE,40.5852602,-105.084423,Indianapolis,Indiana,Indianapolis Indiana ,Eastern,6,TRUE,39.768403,-86.158068,Mountain Eastern,East,18.926355,2,2,1607.433472,998.8128528
2022,1721,1783,910,Michigan,11,16,Ann Arbor,Michigan,Ann Arbor Michigan ,Eastern,6,TRUE,42.2808256,-83.7430378,Indianapolis,Indiana,Indianapolis Indiana ,Eastern,6,TRUE,39.768403,-86.158068,Eastern Eastern,West,-2.4150302,0,0,345.0602961,214.4105276
2022,1720,1782,890,Tennessee,3,32,Knoxville,Tennessee,Knoxville Tennessee ,Eastern,6,TRUE,35.9606384,-83.9207392,Indianapolis,Indiana,Indianapolis Indiana ,Eastern,6,TRUE,39.768403,-86.158068,Eastern Eastern,West,-2.2373288,0,0,466.6935746,289.9899428
2022,1719,1781,916,Longwood,14,64,Farmville,Virginia,Farmville Virginia ,Eastern,6,TRUE,37.3020965,-78.3919401,Indianapolis,Indiana,Indianapolis Indiana ,Eastern,6,TRUE,39.768403,-86.158068,Eastern Eastern,West,-7.7661279,0,0,728.7133348,452.8014737
2022,1718,1780,902,Ohio St.,7,32,Columbus,Ohio,Columbus Ohio ,Eastern,6,TRUE,39.9611755,-82.9987942,Pittsburgh,Pennsylvania,Pittsburgh Pennsylvania ,Eastern,6,TRUE,40.4406248,-79.9958864,Eastern Eastern,East,3.0029078,0,0,260.5326367,161.8874751
2022,1717,1779,915,Loyola Chicago,10,64,Chicago,Illinois,Chicago Illinois ,Central,5,TRUE,41.8781136,-87.6297982,Pittsburgh,Pennsylvania,Pittsburgh Pennsylvania ,Eastern,6,TRUE,40.4406248,-79.9958864,Central Eastern,East,7.6339118,1,1,658.5185879,409.1844801
2022,1716,1778,881,Villanova,2,4,Villanova,Pennsylvania,Villanova Pennsylvania ,Eastern,6,TRUE,40.0375832,-75.3491813,Pittsburgh,Pennsylvania,Pittsburgh Pennsylvania ,Eastern,6,TRUE,40.4406248,-79.9958864,Eastern Eastern,West,-4.6467051,0,0,396.9085533,246.6275409
2022,1715,1777,928,Delaware,15,64,Newark,Delaware,Newark Delaware ,Eastern,6,TRUE,39.6837226,-75.7496572,Pittsburgh,Pennsylvania,Pittsburgh Pennsylvania ,Eastern,6,TRUE,40.4406248,-79.9958864,Eastern Eastern,West,-4.2462292,0,0,370.9954694,230.5258971
2022,1714,1776,918,Kansas,1,1,Lawrence,Kansas,Lawrence Kansas ,Central,5,TRUE,38.9716689,-95.2352501,Fort Worth,Texas,Fort Worth Texas ,Central,5,TRUE,32.7554883,-97.3307658,Central Central,West,-2.0955157,0,0,716.4738644,445.1962194
2022,1713,1775,887,Texas Southern,16,64,Houston,Texas,Houston Texas ,Central,5,TRUE,29.7604267,-95.3698028,Fort Worth,Texas,Fort Worth Texas ,Central,5,TRUE,32.7554883,-97.3307658,Central Central,West,-1.960963,0,0,381.6265464,237.1317422
2022,1712,1774,895,San Diego St.,8,64,San Diego,California,San Diego California ,Pacific,3,TRUE,32.715738,-117.1610838,Fort Worth,Texas,Fort Worth Texas ,Central,5,TRUE,32.7554883,-97.3307658,Pacific Central,East,19.830318,2,2,1852.091475,1150.836288
2022,1711,1773,930,Creighton,9,32,Omaha,Nebraska,Omaha Nebraska ,Central,5,TRUE,41.2565369,-95.9345034,Fort Worth,Texas,Fort Worth Texas ,Central,5,TRUE,32.7554883,-97.3307658,Central Central,West,-1.3962624,0,0,953.3288326,592.3710733
2022,1710,1772,921,Iowa,5,64,Iowa City,Iowa,Iowa City Iowa ,Central,5,TRUE,41.6578257,-91.5346169,Buffalo,New York,Buffalo New York ,Eastern,6,TRUE,42.8864468,-78.8783689,Central Eastern,East,12.656248,1,1,1049.253128,651.9756669
2022,1709,1771,899,Richmond,12,32,Richmond,Virginia,Richmond Virginia ,Eastern,6,TRUE,37.5407246,-77.4360481,Buffalo,New York,Buffalo New York ,Eastern,6,TRUE,42.8864468,-78.8783689,Eastern Eastern,West,-1.4423208,0,0,606.8739904,377.094015
2022,1708,1770,901,Providence,4,16,Providence,Rhode Island,Providence Rhode Island ,Eastern,6,TRUE,41.8239891,-71.4128343,Buffalo,New York,Buffalo New York ,Eastern,6,TRUE,42.8864468,-78.8783689,Eastern Eastern,West,-7.4655346,0,0,624.4992811,388.0458629
2022,1707,1769,892,South Dakota St.,13,64,Brookings,South Dakota,Brookings South Dakota ,Central,5,TRUE,44.3113573,-96.7983877,Buffalo,New York,Buffalo New York ,Eastern,6,TRUE,42.8864468,-78.8783689,Central Eastern,East,17.9200188,1,1,1448.763553,900.2199361
2022,1706,1768,914,LSU,6,64,Baton Rouge,Louisiana,Baton Rouge Louisiana ,Central,5,TRUE,30.4514677,-91.1871466,Milwaukee,Wisconsin,Milwaukee Wisconsin ,Central,5,TRUE,43.0389025,-87.9064736,Central Central,East,3.280673,0,0,1429.530709,888.2692007
2022,1705,1767,920,Iowa St.,11,16,Ames,Iowa,Ames Iowa ,Central,5,TRUE,42.0307812,-93.6319131,Milwaukee,Wisconsin,Milwaukee Wisconsin ,Central,5,TRUE,43.0389025,-87.9064736,Central Central,East,5.7254395,0,0,482.2180219,299.6363872
2022,1704,1766,879,Wisconsin,3,32,Madison,Wisconsin,Madison Wisconsin ,Central,5,TRUE,43.0721661,-89.4007501,Milwaukee,Wisconsin,Milwaukee Wisconsin ,Central,5,TRUE,43.0389025,-87.9064736,Central Central,East,1.4942765,0,0,121.4635779,75.47396819
2022,1703,1765,933,Colgate,14,64,Hamilton,New York,Hamilton New York ,Eastern,6,TRUE,42.8270136,-75.5446238,Milwaukee,Wisconsin,Milwaukee Wisconsin ,Central,5,TRUE,43.0389025,-87.9064736,Eastern Central,West,-12.3618498,1,-1,1005.762766,624.952009
2022,1702,1764,883,USC,7,64,Los Angeles,California,Los Angeles California ,Pacific,3,TRUE,34.0522342,-118.2436849,Greenville,South Carolina,Greenville South Carolina ,Eastern,6,TRUE,34.8526176,-82.3940104,Pacific Eastern,East,35.8496745,3,3,3270.634736,2032.278205
2022,1701,1763,911,Miami FL,10,8,Miami,Florida,Miami Florida ,Eastern,6,TRUE,25.7616798,-80.1917902,Greenville,South Carolina,Greenville South Carolina ,Eastern,6,TRUE,34.8526176,-82.3940104,Eastern Eastern,West,-2.2022202,0,0,1032.642699,641.6544249
2022,1700,1762,939,Auburn,2,32,Auburn,Alabama,Auburn Alabama ,Central,5,TRUE,32.6098566,-85.4807825,Greenville,South Carolina,Greenville South Carolina ,Eastern,6,TRUE,34.8526176,-82.3940104,Central Eastern,East,3.0867721,1,1,379.0034851,235.5018474
2022,1699,1761,919,Jacksonville St.,15,64,Jacksonville,Florida,Jacksonville Florida ,Eastern,6,TRUE,30.3321838,-81.655651,Greenville,South Carolina,Greenville South Carolina ,Eastern,6,TRUE,34.8526176,-82.3940104,Eastern Eastern,West,-0.7383594,0,0,507.3807378,315.2717739
2022,1698,898,925,Gonzaga,1,16,Spokane,Washington,Spokane Washington ,Pacific,3,TRUE,47.6587802,-117.4260466,Portland,Oregon,Portland Oregon ,Pacific,3,TRUE,45.515232,-122.6783853,Pacific Pacific,West,-5.2523387,0,0,466.6632671,289.9711106
2022,1697,897,912,Memphis,9,32,Memphis,Tennessee,Memphis Tennessee ,Central,5,TRUE,35.1495343,-90.0489801,Portland,Oregon,Portland Oregon ,Pacific,3,TRUE,45.515232,-122.6783853,Central Pacific,West,-32.6294052,2,-2,2970.556528,1845.818251
2022,1696,896,906,New Mexico St.,12,32,Las Cruces,New Mexico,Las Cruces New Mexico ,Mountain,4,TRUE,32.3199396,-106.7636538,Buffalo,New York,Buffalo New York ,Eastern,6,TRUE,42.8864468,-78.8783689,Mountain Eastern,East,27.8852849,2,2,2706.017242,1681.44116
2022,1695,895,940,Arkansas,4,8,Fayetteville,Arkansas,Fayetteville Arkansas ,Central,5,TRUE,36.0626579,-94.1605839,Buffalo,New York,Buffalo New York ,Eastern,6,TRUE,42.8864468,-78.8783689,Central Eastern,East,15.282215,1,1,1511.947954,939.480903
2022,1694,894,903,Notre Dame,11,32,Notre Dame,Indiana,Notre Dame Indiana ,Eastern,6,TRUE,41.7001908,-86.2379328,San Diego,California,San Diego California ,Pacific,3,TRUE,32.715738,-117.1610838,Eastern Pacific,West,-30.923151,3,-3,2896.237701,1799.638673
2022,1693,893,886,Texas Tech,3,16,Lubbock,Texas,Lubbock Texas ,Central,5,TRUE,33.5845617,-101.8456417,San Diego,California,San Diego California ,Pacific,3,TRUE,32.715738,-117.1610838,Central Pacific,West,-15.3154421,2,-2,1427.784808,887.1843481
2022,1692,892,909,Michigan St.,7,32,East Lansing,Michigan,East Lansing Michigan ,Eastern,6,TRUE,42.7369792,-84.4838654,Greenville,South Carolina,Greenville South Carolina ,Eastern,6,TRUE,34.8526176,-82.3940104,Eastern Eastern,East,2.089855,0,0,895.1273114,556.2063247
2022,1691,891,927,Duke,2,4,Durham,North Carolina,Durham North Carolina ,Eastern,6,TRUE,35.9940329,-78.898619,Greenville,South Carolina,Greenville South Carolina ,Eastern,6,TRUE,34.8526176,-82.3940104,Eastern Eastern,West,-3.4953914,0,0,341.1798047,211.999302
2022,1690,890,938,Baylor,1,32,Waco,Texas,Waco Texas ,Central,5,TRUE,31.549333,-97.1466695,Fort Worth,Texas,Fort Worth Texas ,Central,5,TRUE,32.7554883,-97.3307658,Central Central,West,-0.1840963,0,0,135.233296,84.03007435
2022,1689,889,904,North Carolina,8,2,Chapel Hill,North Carolina,Chapel Hill North Carolina ,Eastern,6,TRUE,35.9131996,-79.0558445,Fort Worth,Texas,Fort Worth Texas ,Central,5,TRUE,32.7554883,-97.3307658,Eastern Central,West,-18.2749213,1,-1,1711.621901,1063.552541
2022,1688,888,897,Saint Mary's,5,32,Moraga,California,Moraga California ,Pacific,3,TRUE,37.8349263,-122.1296871,Portland,Oregon,Portland Oregon ,Pacific,3,TRUE,45.515232,-122.6783853,Pacific Pacific,West,-0.5486982,0,0,855.2191993,531.4085735
2022,1687,887,884,UCLA,4,16,Los Angeles,California,Los Angeles California ,Pacific,3,TRUE,34.0522342,-118.2436849,Portland,Oregon,Portland Oregon ,Pacific,3,TRUE,45.515232,-122.6783853,Pacific Pacific,West,-4.4347004,0,0,1329.195561,825.9238303
2022,1686,886,889,Texas,6,32,Austin,Texas,Austin Texas ,Central,5,TRUE,30.267153,-97.7430608,Milwaukee,Wisconsin,Milwaukee Wisconsin ,Central,5,TRUE,43.0389025,-87.9064736,Central Central,East,9.8365872,0,0,1666.629504,1035.595562
2022,1685,885,900,Purdue,3,16,West Lafayette,Indiana,West Lafayette Indiana ,Eastern,6,TRUE,40.4258686,-86.9080655,Milwaukee,Wisconsin,Milwaukee Wisconsin ,Central,5,TRUE,43.0389025,-87.9064736,Eastern Central,West,-0.9984081,1,-1,302.1298861,187.7348076
2022,1684,884,907,Murray St.,7,32,Murray,Kentucky,Murray Kentucky ,Central,5,TRUE,36.6103334,-88.314761,Indianapolis,Indiana,Indianapolis Indiana ,Eastern,6,TRUE,39.768403,-86.158068,Central Eastern,East,2.156693,1,1,398.5145951,247.6254891
2022,1683,883,896,Saint Peter's,15,8,Jersey City,New Jersey,Jersey City New Jersey ,Eastern,6,TRUE,40.7177545,-74.0431435,Indianapolis,Indiana,Indianapolis Indiana ,Eastern,6,TRUE,39.768403,-86.158068,Eastern Eastern,West,-12.1149245,0,0,1032.839434,641.7766704
2022,1682,882,941,Arizona,1,16,Tucson,Arizona,Tucson Arizona ,Mountain,3,FALSE,32.2539787,-110.9741769,San Diego,California,San Diego California ,Pacific,3,TRUE,32.715738,-117.1610838,Mountain Pacific,West,-6.1869069,0,0,582.4932556,361.9445287
2022,1681,881,891,TCU,9,32,Fort Worth,Texas,Fort Worth Texas ,Central,5,TRUE,32.7554883,-97.3307658,San Diego,California,San Diego California ,Pacific,3,TRUE,32.715738,-117.1610838,Central Pacific,West,-19.830318,2,-2,1852.091475,1150.836288
2022,1680,880,924,Houston,5,8,Houston,Texas,Houston Texas ,Central,5,TRUE,29.7604267,-95.3698028,Pittsburgh,Pennsylvania,Pittsburgh Pennsylvania ,Eastern,6,TRUE,40.4406248,-79.9958864,Central Eastern,East,15.3739164,1,1,1829.889344,1137.040523
2022,1679,879,923,Illinois,4,32,Champaign,Illinois,Champaign Illinois ,Central,5,TRUE,40.1164204,-88.2433829,Pittsburgh,Pennsylvania,Pittsburgh Pennsylvania ,Eastern,6,TRUE,40.4406248,-79.9958864,Central Eastern,East,8.2474965,1,1,700.3225285,435.1602445
2022,1678,878,910,Michigan,11,16,Ann Arbor,Michigan,Ann Arbor Michigan ,Eastern,6,TRUE,42.2808256,-83.7430378,Indianapolis,Indiana,Indianapolis Indiana ,Eastern,6,TRUE,39.768403,-86.158068,Eastern Eastern,West,-2.4150302,0,0,345.0602961,214.4105276
2022,1677,877,890,Tennessee,3,32,Knoxville,Tennessee,Knoxville Tennessee ,Eastern,6,TRUE,35.9606384,-83.9207392,Indianapolis,Indiana,Indianapolis Indiana ,Eastern,6,TRUE,39.768403,-86.158068,Eastern Eastern,West,-2.2373288,0,0,466.6935746,289.9899428
2022,1676,876,902,Ohio St.,7,32,Columbus,Ohio,Columbus Ohio ,Eastern,6,TRUE,39.9611755,-82.9987942,Pittsburgh,Pennsylvania,Pittsburgh Pennsylvania ,Eastern,6,TRUE,40.4406248,-79.9958864,Eastern Eastern,East,3.0029078,0,0,260.5326367,161.8874751
2022,1675,875,881,Villanova,2,4,Villanova,Pennsylvania,Villanova Pennsylvania ,Eastern,6,TRUE,40.0375832,-75.3491813,Pittsburgh,Pennsylvania,Pittsburgh Pennsylvania ,Eastern,6,TRUE,40.4406248,-79.9958864,Eastern Eastern,West,-4.6467051,0,0,396.9085533,246.6275409
2022,1674,874,918,Kansas,1,1,Lawrence,Kansas,Lawrence Kansas ,Central,5,TRUE,38.9716689,-95.2352501,Fort Worth,Texas,Fort Worth Texas ,Central,5,TRUE,32.7554883,-97.3307658,Central Central,West,-2.0955157,0,0,716.4738644,445.1962194
2022,1673,873,930,Creighton,9,32,Omaha,Nebraska,Omaha Nebraska ,Central,5,TRUE,41.2565369,-95.9345034,Fort Worth,Texas,Fort Worth Texas ,Central,5,TRUE,32.7554883,-97.3307658,Central Central,West,-1.3962624,0,0,953.3288326,592.3710733
2022,1672,872,899,Richmond,12,32,Richmond,Virginia,Richmond Virginia ,Eastern,6,TRUE,37.5407246,-77.4360481,Buffalo,New York,Buffalo New York ,Eastern,6,TRUE,42.8864468,-78.8783689,Eastern Eastern,West,-1.4423208,0,0,606.8739904,377.094015
2022,1671,871,901,Providence,4,16,Providence,Rhode Island,Providence Rhode Island ,Eastern,6,TRUE,41.8239891,-71.4128343,Buffalo,New York,Buffalo New York ,Eastern,6,TRUE,42.8864468,-78.8783689,Eastern Eastern,West,-7.4655346,0,0,624.4992811,388.0458629
2022,1670,870,920,Iowa St.,11,16,Ames,Iowa,Ames Iowa ,Central,5,TRUE,42.0307812,-93.6319131,Milwaukee,Wisconsin,Milwaukee Wisconsin ,Central,5,TRUE,43.0389025,-87.9064736,Central Central,East,5.7254395,0,0,482.2180219,299.6363872
2022,1669,869,879,Wisconsin,3,32,Madison,Wisconsin,Madison Wisconsin ,Central,5,TRUE,43.0721661,-89.4007501,Milwaukee,Wisconsin,Milwaukee Wisconsin ,Central,5,TRUE,43.0389025,-87.9064736,Central Central,East,1.4942765,0,0,121.4635779,75.47396819
2022,1668,868,911,Miami FL,10,8,Miami,Florida,Miami Florida ,Eastern,6,TRUE,25.7616798,-80.1917902,Greenville,South Carolina,Greenville South Carolina ,Eastern,6,TRUE,34.8526176,-82.3940104,Eastern Eastern,West,-2.2022202,0,0,1032.642699,641.6544249
2022,1667,867,939,Auburn,2,32,Auburn,Alabama,Auburn Alabama ,Central,5,TRUE,32.6098566,-85.4807825,Greenville,South Carolina,Greenville South Carolina ,Eastern,6,TRUE,34.8526176,-82.3940104,Central Eastern,East,3.0867721,1,1,379.0034851,235.5018474
2022,1666,434,925,Gonzaga,1,16,Spokane,Washington,Spokane Washington ,Pacific,3,TRUE,47.6587802,-117.4260466,San Francisco,California,San Francisco California ,Pacific,3,TRUE,37.7749295,-122.4194155,Pacific Pacific,West,-4.9933689,0,0,1171.652817,728.0313075
2022,1665,433,940,Arkansas,4,8,Fayetteville,Arkansas,Fayetteville Arkansas ,Central,5,TRUE,36.0626579,-94.1605839,San Francisco,California,San Francisco California ,Pacific,3,TRUE,37.7749295,-122.4194155,Central Pacific,West,-28.2588316,2,-2,2509.83735,1559.540626
2022,1664,432,886,Texas Tech,3,16,Lubbock,Texas,Lubbock Texas ,Central,5,TRUE,33.5845617,-101.8456417,San Francisco,California,San Francisco California ,Pacific,3,TRUE,37.7749295,-122.4194155,Central Pacific,West,-20.5737738,2,-2,1911.452621,1187.721594
2022,1663,431,927,Duke,2,4,Durham,North Carolina,Durham North Carolina ,Eastern,6,TRUE,35.9940329,-78.898619,San Francisco,California,San Francisco California ,Pacific,3,TRUE,37.7749295,-122.4194155,Eastern Pacific,West,-43.5207965,3,-3,3840.675298,2386.484989
2022,1662,430,904,North Carolina,8,2,Chapel Hill,North Carolina,Chapel Hill North Carolina ,Eastern,6,TRUE,35.9131996,-79.0558445,Philadelphia,Pennsylvania,Philadelphia Pennsylvania ,Eastern,6,TRUE,39.9525839,-75.1652215,Eastern Eastern,East,3.890623,0,0,563.9332852,350.4118978
2022,1661,429,884,UCLA,4,16,Los Angeles,California,Los Angeles California ,Pacific,3,TRUE,34.0522342,-118.2436849,Philadelphia,Pennsylvania,Philadelphia Pennsylvania ,Eastern,6,TRUE,39.9525839,-75.1652215,Pacific Eastern,East,43.0784634,3,3,3843.447359,2388.207468
2022,1660,428,900,Purdue,3,16,West Lafayette,Indiana,West Lafayette Indiana ,Eastern,6,TRUE,40.4258686,-86.9080655,Philadelphia,Pennsylvania,Philadelphia Pennsylvania ,Eastern,6,TRUE,39.9525839,-75.1652215,Eastern Eastern,East,11.742844,0,0,998.1315236,620.2101748
2022,1659,427,896,Saint Peter's,15,8,Jersey City,New Jersey,Jersey City New Jersey ,Eastern,6,TRUE,40.7177545,-74.0431435,Philadelphia,Pennsylvania,Philadelphia Pennsylvania ,Eastern,6,TRUE,39.9525839,-75.1652215,Eastern Eastern,West,-1.122078,0,0,127.6092412,79.29270632
2022,1658,426,941,Arizona,1,16,Tucson,Arizona,Tucson Arizona ,Mountain,3,FALSE,32.2539787,-110.9741769,San Antonio,Texas,San Antonio Texas ,Central,5,TRUE,29.4251905,-98.4945922,Mountain Central,East,12.4795847,2,2,1231.436197,765.1789776
2022,1657,425,924,Houston,5,8,Houston,Texas,Houston Texas ,Central,5,TRUE,29.7604267,-95.3698028,San Antonio,Texas,San Antonio Texas ,Central,5,TRUE,29.4251905,-98.4945922,Central Central,West,-3.1247894,0,0,304.4176306,189.1563461
2022,1656,424,910,Michigan,11,16,Ann Arbor,Michigan,Ann Arbor Michigan ,Eastern,6,TRUE,42.2808256,-83.7430378,San Antonio,Texas,San Antonio Texas ,Central,5,TRUE,29.4251905,-98.4945922,Eastern Central,West,-14.7515544,1,-1,1946.411333,1209.443931
2022,1655,423,881,Villanova,2,4,Villanova,Pennsylvania,Villanova Pennsylvania ,Eastern,6,TRUE,40.0375832,-75.3491813,San Antonio,Texas,San Antonio Texas ,Central,5,TRUE,29.4251905,-98.4945922,Eastern Central,West,-23.1454109,1,-1,2411.413172,1498.382678
2022,1654,422,918,Kansas,1,1,Lawrence,Kansas,Lawrence Kansas ,Central,5,TRUE,38.9716689,-95.2352501,Chicago,Illinois,Chicago Illinois ,Central,5,TRUE,41.8781136,-87.6297982,Central Central,East,7.6054519,0,0,719.9772381,447.3731148
2022,1653,421,901,Providence,4,16,Providence,Rhode Island,Providence Rhode Island ,Eastern,6,TRUE,41.8239891,-71.4128343,Chicago,Illinois,Chicago Illinois ,Central,5,TRUE,41.8781136,-87.6297982,Eastern Central,West,-16.2169639,1,-1,1341.212822,833.3910103
2022,1652,420,920,Iowa St.,11,16,Ames,Iowa,Ames Iowa ,Central,5,TRUE,42.0307812,-93.6319131,Chicago,Illinois,Chicago Illinois ,Central,5,TRUE,41.8781136,-87.6297982,Central Central,East,6.0021149,0,0,496.5214118,308.5241016
2022,1651,419,911,Miami FL,10,8,Miami,Florida,Miami Florida ,Eastern,6,TRUE,25.7616798,-80.1917902,Chicago,Illinois,Chicago Illinois ,Central,5,TRUE,41.8781136,-87.6297982,Eastern Central,West,-7.438008,1,-1,1917.312134,1191.362527
2022,1650,202,940,Arkansas,4,8,Fayetteville,Arkansas,Fayetteville Arkansas ,Central,5,TRUE,36.0626579,-94.1605839,San Francisco,California,San Francisco California ,Pacific,3,TRUE,37.7749295,-122.4194155,Central Pacific,West,-28.2588316,2,-2,2509.83735,1559.540626
2022,1649,201,927,Duke,2,4,Durham,North Carolina,Durham North Carolina ,Eastern,6,TRUE,35.9940329,-78.898619,San Francisco,California,San Francisco California ,Pacific,3,TRUE,37.7749295,-122.4194155,Eastern Pacific,West,-43.5207965,3,-3,3840.675298,2386.484989
2022,1648,200,904,North Carolina,8,2,Chapel Hill,North Carolina,Chapel Hill North Carolina ,Eastern,6,TRUE,35.9131996,-79.0558445,Philadelphia,Pennsylvania,Philadelphia Pennsylvania ,Eastern,6,TRUE,39.9525839,-75.1652215,Eastern Eastern,East,3.890623,0,0,563.9332852,350.4118978
2022,1647,199,896,Saint Peter's,15,8,Jersey City,New Jersey,Jersey City New Jersey ,Eastern,6,TRUE,40.7177545,-74.0431435,Philadelphia,Pennsylvania,Philadelphia Pennsylvania ,Eastern,6,TRUE,39.9525839,-75.1652215,Eastern Eastern,West,-1.122078,0,0,127.6092412,79.29270632
2022,1646,198,924,Houston,5,8,Houston,Texas,Houston Texas ,Central,5,TRUE,29.7604267,-95.3698028,San Antonio,Texas,San Antonio Texas ,Central,5,TRUE,29.4251905,-98.4945922,Central Central,West,-3.1247894,0,0,304.4176306,189.1563461
2022,1645,197,881,Villanova,2,4,Villanova,Pennsylvania,Villanova Pennsylvania ,Eastern,6,TRUE,40.0375832,-75.3491813,San Antonio,Texas,San Antonio Texas ,Central,5,TRUE,29.4251905,-98.4945922,Eastern Central,West,-23.1454109,1,-1,2411.413172,1498.382678
2022,1644,196,918,Kansas,1,1,Lawrence,Kansas,Lawrence Kansas ,Central,5,TRUE,38.9716689,-95.2352501,Chicago,Illinois,Chicago Illinois ,Central,5,TRUE,41.8781136,-87.6297982,Central Central,East,7.6054519,0,0,719.9772381,447.3731148
2022,1643,195,911,Miami FL,10,8,Miami,Florida,Miami Florida ,Eastern,6,TRUE,25.7616798,-80.1917902,Chicago,Illinois,Chicago Illinois ,Central,5,TRUE,41.8781136,-87.6297982,Eastern Central,West,-7.438008,1,-1,1917.312134,1191.362527
2022,1642,86,927,Duke,2,4,Durham,North Carolina,Durham North Carolina ,Eastern,6,TRUE,35.9940329,-78.898619,New Orleans,Louisiana,New Orleans Louisiana ,Central,5,TRUE,29.9510658,-90.0715323,Eastern Central,West,-11.1729133,1,-1,1238.75875,769.7290011
2022,1641,85,904,North Carolina,8,2,Chapel Hill,North Carolina,Chapel Hill North Carolina ,Eastern,6,TRUE,35.9131996,-79.0558445,New Orleans,Louisiana,New Orleans Louisiana ,Central,5,TRUE,29.9510658,-90.0715323,Eastern Central,West,-11.0156878,1,-1,1222.012616,759.3234359
2022,1640,84,881,Villanova,2,4,Villanova,Pennsylvania,Villanova Pennsylvania ,Eastern,6,TRUE,40.0375832,-75.3491813,New Orleans,Louisiana,New Orleans Louisiana ,Central,5,TRUE,29.9510658,-90.0715323,Eastern Central,West,-14.722351,1,-1,1744.035251,1083.693264
2022,1639,83,918,Kansas,1,1,Lawrence,Kansas,Lawrence Kansas ,Central,5,TRUE,38.9716689,-95.2352501,New Orleans,Louisiana,New Orleans Louisiana ,Central,5,TRUE,29.9510658,-90.0715323,Central Central,East,5.1637178,0,0,1108.626491,688.8685645
2022,1638,28,904,North Carolina,8,2,Chapel Hill,North Carolina,Chapel Hill North Carolina ,Eastern,6,TRUE,35.9131996,-79.0558445,New Orleans,Louisiana,New Orleans Louisiana ,Central,5,TRUE,29.9510658,-90.0715323,Eastern Central,West,-11.0156878,1,-1,1222.012616,759.3234359
2022,1637,27,918,Kansas,1,1,Lawrence,Kansas,Lawrence Kansas ,Central,5,TRUE,38.9716689,-95.2352501,New Orleans,Louisiana,New Orleans Louisiana ,Central,5,TRUE,29.9510658,-90.0715323,Central Central,East,5.1637178,0,0,1108.626491,688.8685645
2021,1636,1760,856,Gonzaga,1,2,Spokane,Washington,Spokane Washington ,Pacific,3,TRUE,47.6587802,-117.4260466,Indianapolis,Indiana,Indianapolis Indiana ,Eastern,6,TRUE,39.768403,-86.158068,Pacific Eastern,East,31.2679786,3,3,2640.513859,1640.739245
2021,1635,1759,839,Norfolk St.,16,64,Norfolk,Virginia,Norfolk Virginia ,Eastern,6,TRUE,36.8507689,-76.2858726,Indianapolis,Indiana,Indianapolis Indiana ,Eastern,6,TRUE,39.768403,-86.158068,Eastern Eastern,West,-9.8721954,0,0,919.8011622,571.5379448
